timestamp,packet_count,Pitch,Roll,Yaw,Altitude,Velocity,Accel X,Accel Y,Accel Z,Pressure Pa,IMU Temp C,GPS Fix,GPS Sats,GPS Lat,GPS Lon,GPS Alt m,GPS Speed m/s,VBat,RSSI
2025-11-09T16:45:24.830722,0,-0.33,0.82,198.47,3048.32,0.0,0.005,0.014,1.043,69683.36,28.95,0,0,0.0,0.0,0.0,0.0,0.97,-22.0
2025-11-09T16:45:24.929107,1,-0.33,0.82,198.47,3048.32,0.0,0.007,0.015,1.04,69683.36,28.93,0,0,0.0,0.0,0.0,0.0,0.97,-22.0
2025-11-09T16:45:25.027582,2,-0.33,0.82,198.46,3048.32,0.0,0.006,0.017,1.042,69683.36,28.92,0,0,0.0,0.0,0.0,0.0,0.97,-23.0
2025-11-09T16:45:25.129981,3,-0.33,0.82,198.46,3048.32,0.0,0.007,0.017,1.04,69683.36,28.95,0,0,0.0,0.0,0.0,0.0,0.97,-22.0
2025-11-09T16:45:25.228275,4,-0.33,0.82,198.46,3048.32,0.0,0.005,0.014,1.042,69683.36,28.96,0,0,0.0,0.0,0.0,0.0,0.97,-22.0
2025-11-09T16:45:25.330367,5,-0.33,0.82,198.47,3048.32,0.0,0.005,0.013,1.042,69683.36,28.95,0,0,0.0,0.0,0.0,0.0,0.97,-22.0
2025-11-09T16:45:25.429194,6,-0.33,0.82,198.45,3048.32,0.0,0.005,0.015,1.041,69683.36,28.9,0,0,0.0,0.0,0.0,0.0,0.97,-22.0
2025-11-09T16:45:25.531076,7,-0.33,0.82,198.46,3048.32,0.0,0.005,0.015,1.042,69683.36,28.95,0,0,0.0,0.0,0.0,0.0,0.97,-23.0
2025-11-09T16:45:25.629629,8,-0.33,0.82,198.46,3048.32,0.0,0.006,0.015,1.042,69683.36,28.92,0,0,0.0,0.0,0.0,0.0,0.97,-22.0
2025-11-09T16:45:25.728005,9,-0.33,0.82,198.45,3048.32,0.0,0.006,0.016,1.041,69683.36,28.96,0,0,0.0,0.0,0.0,0.0,0.97,-22.0
2025-11-09T16:45:25.830136,10,-0.33,0.82,198.43,3048.32,0.0,0.005,0.015,1.041,69683.36,28.89,0,0,0.0,0.0,0.0,0.0,0.97,-22.0
2025-11-09T16:45:25.928800,11,-0.33,0.82,198.43,3048.32,0.0,0.007,0.014,1.042,69683.36,28.89,0,0,0.0,0.0,0.0,0.0,0.97,-22.0
2025-11-09T16:45:26.030803,12,-0.34,0.82,198.45,3048.32,0.0,0.007,0.015,1.043,69683.36,28.95,0,0,0.0,0.0,0.0,0.0,0.97,-21.0
2025-11-09T16:45:26.129846,13,-0.34,0.82,198.45,3048.32,0.0,0.006,0.016,1.041,69683.36,28.91,0,0,0.0,0.0,0.0,0.0,0.97,-22.0
2025-11-09T16:45:26.228099,14,-0.33,0.82,198.46,3048.32,0.0,0.004,0.015,1.043,69683.36,28.94,0,0,0.0,0.0,0.0,0.0,0.97,-23.0
2025-11-09T16:45:26.329695,15,-0.33,0.82,198.46,3048.32,0.0,0.005,0.014,1.042,69683.36,28.9,0,0,0.0,0.0,0.0,0.0,0.97,-23.0
2025-11-09T16:45:26.428369,16,-0.33,0.82,198.45,3048.32,0.0,0.006,0.014,1.042,69683.36,28.93,0,0,0.0,0.0,0.0,0.0,0.97,-24.0
2025-11-09T16:45:26.530636,17,-0.33,0.82,198.44,3048.32,0.0,0.006,0.015,1.043,69683.36,28.96,0,0,0.0,0.0,0.0,0.0,0.97,-22.0
2025-11-09T16:45:26.629416,18,-0.33,0.82,198.45,3048.32,0.0,0.005,0.014,1.042,69683.36,28.95,0,0,0.0,0.0,0.0,0.0,0.97,-22.0
2025-11-09T16:45:26.731235,19,-0.33,0.82,198.45,3048.32,0.0,0.005,0.016,1.042,69683.36,28.93,0,0,0.0,0.0,0.0,0.0,0.97,-23.0
2025-11-09T16:45:26.829548,20,-0.33,0.82,198.45,3048.32,0.0,0.006,0.015,1.042,69683.36,28.95,0,0,0.0,0.0,0.0,0.0,0.97,-22.0
2025-11-09T16:45:26.928400,21,-0.33,0.82,198.47,3048.32,0.0,0.007,0.015,1.042,69683.36,28.92,0,0,0.0,0.0,0.0,0.0,0.97,-23.0
2025-11-09T16:45:27.030331,22,-0.34,0.82,198.47,3048.32,0.0,0.006,0.015,1.041,69683.36,28.91,0,0,0.0,0.0,0.0,0.0,0.97,-23.0
2025-11-09T16:45:27.128933,23,-0.34,0.82,198.46,3048.32,0.0,0.006,0.015,1.04,69683.36,28.97,0,0,0.0,0.0,0.0,0.0,0.97,-22.0
2025-11-09T16:45:27.230857,24,-0.33,0.82,198.47,3048.32,0.0,0.005,0.014,1.042,69683.36,28.93,0,0,0.0,0.0,0.0,0.0,0.97,-23.0
2025-11-09T16:45:27.329305,25,-0.34,0.82,198.47,3048.32,0.0,0.006,0.015,1.042,69683.36,28.95,0,0,0.0,0.0,0.0,0.0,0.97,-23.0
2025-11-09T16:45:27.427737,26,-0.33,0.82,198.48,3048.32,0.0,0.007,0.015,1.043,69683.36,28.98,0,0,0.0,0.0,0.0,0.0,0.97,-22.0
2025-11-09T16:45:27.529907,27,-0.33,0.82,198.51,3048.32,0.0,0.005,0.015,1.04,69683.36,28.91,0,0,0.0,0.0,0.0,0.0,0.97,-23.0
2025-11-09T16:45:27.628843,28,-0.33,0.82,198.51,3048.32,0.0,0.006,0.016,1.042,69683.36,28.95,0,0,0.0,0.0,0.0,0.0,0.97,-23.0
2025-11-09T16:45:27.730511,29,-0.33,0.82,198.52,3048.32,0.0,0.004,0.016,1.043,69683.36,28.95,0,0,0.0,0.0,0.0,0.0,0.97,-23.0
2025-11-09T16:45:27.829002,30,-0.33,0.82,198.53,3048.32,0.0,0.004,0.015,1.041,69683.36,28.95,0,0,0.0,0.0,0.0,0.0,0.97,-22.0
2025-11-09T16:45:27.931209,31,-0.33,0.82,198.52,3048.32,0.0,0.006,0.014,1.043,69683.36,28.95,0,0,0.0,0.0,0.0,0.0,0.97,-22.0
2025-11-09T16:45:28.029755,32,-0.33,0.82,198.52,3048.32,0.0,0.005,0.014,1.042,69683.36,28.94,0,0,0.0,0.0,0.0,0.0,0.97,-22.0
2025-11-09T16:45:28.128474,33,-0.33,0.82,198.52,3048.32,0.0,0.006,0.014,1.044,69683.36,28.96,0,0,0.0,0.0,0.0,0.0,0.97,-22.0
2025-11-09T16:45:28.230367,34,-0.33,0.82,198.53,3048.32,0.0,0.005,0.016,1.043,69683.36,28.95,0,0,0.0,0.0,0.0,0.0,0.97,-22.0
2025-11-09T16:45:28.329094,35,-0.33,0.82,198.55,3048.32,0.0,0.005,0.014,1.042,69683.36,28.96,0,0,0.0,0.0,0.0,0.0,0.97,-22.0
2025-11-09T16:45:28.431043,36,-0.33,0.82,198.56,3048.32,0.0,0.005,0.015,1.042,69683.36,28.96,0,0,0.0,0.0,0.0,0.0,0.97,-22.0
2025-11-09T16:45:28.529668,37,-0.33,0.82,198.57,3048.32,0.0,0.006,0.015,1.041,69683.36,28.92,0,0,0.0,0.0,0.0,0.0,0.97,-23.0
2025-11-09T16:45:28.628216,38,-0.33,0.82,198.56,3048.32,0.0,0.006,0.016,1.043,69683.36,28.91,0,0,0.0,0.0,0.0,0.0,0.97,-22.0
2025-11-09T16:45:28.730249,39,-0.33,0.82,198.55,3048.32,0.0,0.008,0.015,1.043,69683.36,28.96,0,0,0.0,0.0,0.0,0.0,0.97,-23.0
2025-11-09T16:45:28.828970,40,-0.33,0.82,198.54,3048.32,0.0,0.006,0.015,1.043,69683.36,28.95,0,0,0.0,0.0,0.0,0.0,0.97,-22.0
2025-11-09T16:45:28.930894,41,-0.33,0.82,198.54,3048.32,0.0,0.005,0.015,1.042,69683.36,28.96,0,0,0.0,0.0,0.0,0.0,0.97,-22.0
2025-11-09T16:45:29.029513,42,-0.33,0.82,198.54,3048.32,0.0,0.005,0.013,1.043,69683.36,28.95,0,0,0.0,0.0,0.0,0.0,0.97,-23.0
2025-11-09T16:45:29.131256,43,-0.33,0.82,198.53,3048.32,0.0,0.005,0.016,1.043,69683.36,28.97,0,0,0.0,0.0,0.0,0.0,0.97,-23.0
2025-11-09T16:45:29.230052,44,-0.33,0.82,198.52,3048.32,0.0,0.007,0.015,1.041,69683.36,28.93,0,0,0.0,0.0,0.0,0.0,0.97,-23.0
2025-11-09T16:45:29.328457,45,-0.33,0.82,198.51,3048.32,0.0,0.006,0.016,1.041,69683.36,28.95,0,0,0.0,0.0,0.0,0.0,0.97,-22.0
2025-11-09T16:45:29.430292,46,-0.33,0.82,198.5,3048.32,0.0,0.004,0.016,1.044,69683.36,28.91,0,0,0.0,0.0,0.0,0.0,0.97,-23.0
2025-11-09T16:45:29.529865,47,-0.33,0.82,198.49,3048.32,0.0,0.006,0.014,1.043,69683.36,28.96,0,0,0.0,0.0,0.0,0.0,0.97,-22.0
2025-11-09T16:45:29.631147,48,-0.33,0.82,198.48,3048.32,0.0,0.006,0.015,1.042,69683.36,28.92,0,0,0.0,0.0,0.0,0.0,0.97,-22.0
2025-11-09T16:45:29.729566,49,-0.33,0.82,198.48,3048.32,0.0,0.005,0.016,1.042,69683.36,28.91,0,0,0.0,0.0,0.0,0.0,0.97,-22.0
2025-11-09T16:45:29.831582,50,-0.33,0.82,198.49,3048.32,0.0,0.004,0.015,1.042,69683.36,28.93,0,0,0.0,0.0,0.0,0.0,0.97,-22.0
2025-11-09T16:45:29.930362,51,-0.33,0.82,198.49,3048.32,0.0,0.004,0.015,1.042,69683.36,28.93,0,0,0.0,0.0,0.0,0.0,0.97,-23.0
2025-11-09T16:45:30.028927,52,-0.33,0.82,198.48,3048.32,0.0,0.005,0.014,1.042,69683.36,28.95,0,0,0.0,0.0,0.0,0.0,0.97,-22.0
2025-11-09T16:45:30.130929,53,-0.33,0.82,198.48,3048.32,0.0,0.005,0.014,1.041,69683.36,28.92,0,0,0.0,0.0,0.0,0.0,0.97,-23.0
2025-11-09T16:45:30.229524,54,-0.33,0.82,198.49,3048.32,0.0,0.003,0.016,1.043,69683.36,28.97,0,0,0.0,0.0,0.0,0.0,0.97,-22.0
2025-11-09T16:45:30.331422,55,-0.33,0.82,198.48,3048.32,0.0,0.006,0.015,1.042,69683.36,28.96,0,0,0.0,0.0,0.0,0.0,0.97,-23.0
2025-11-09T16:45:30.430053,56,-0.33,0.82,198.47,3048.32,0.0,0.004,0.014,1.041,69683.36,28.95,0,0,0.0,0.0,0.0,0.0,0.97,-22.0
2025-11-09T16:45:30.528619,57,-0.33,0.82,198.48,3048.32,0.0,0.006,0.014,1.042,69683.36,28.96,0,0,0.0,0.0,0.0,0.0,0.97,-23.0
2025-11-09T16:45:30.630573,58,-0.33,0.82,198.48,3048.32,0.0,0.005,0.014,1.043,69683.36,28.93,0,0,0.0,0.0,0.0,0.0,0.97,-22.0
2025-11-09T16:45:30.729196,59,-0.33,0.82,198.48,3048.32,0.0,0.006,0.015,1.043,69683.36,28.93,0,0,0.0,0.0,0.0,0.0,0.97,-24.0
2025-11-09T16:45:30.831079,60,-0.33,0.82,198.47,3048.32,0.0,0.004,0.014,1.043,69683.36,28.97,0,0,0.0,0.0,0.0,0.0,0.97,-23.0
2025-11-09T16:45:30.929754,61,-0.33,0.82,198.47,3048.32,0.0,0.006,0.016,1.042,69683.36,28.93,0,0,0.0,0.0,0.0,0.0,0.97,-23.0
2025-11-09T16:45:31.031756,62,-0.33,0.82,198.49,3048.32,0.0,0.005,0.018,1.041,69683.36,28.89,0,0,0.0,0.0,0.0,0.0,0.97,-23.0
2025-11-09T16:45:31.130352,63,-0.33,0.82,198.49,3048.32,0.0,0.006,0.015,1.041,69683.36,28.9,0,0,0.0,0.0,0.0,0.0,0.97,-23.0
2025-11-09T16:45:31.228987,64,-0.33,0.82,198.48,3048.32,0.0,0.005,0.015,1.042,69683.36,28.94,0,0,0.0,0.0,0.0,0.0,0.97,-23.0
2025-11-09T16:45:31.330908,65,-0.33,0.82,198.47,3048.32,0.0,0.005,0.014,1.042,69683.36,28.93,0,0,0.0,0.0,0.0,0.0,0.97,-23.0
2025-11-09T16:45:31.429567,66,-0.33,0.82,198.47,3048.32,0.0,0.005,0.015,1.042,69683.36,28.94,0,0,0.0,0.0,0.0,0.0,0.97,-24.0
2025-11-09T16:45:31.531528,67,-0.33,0.82,198.45,3048.32,0.0,0.004,0.015,1.042,69683.36,28.91,0,0,0.0,0.0,0.0,0.0,0.97,-23.0
2025-11-09T16:45:31.630119,68,-0.33,0.82,198.44,3048.32,0.0,0.006,0.015,1.042,69683.36,28.93,0,0,0.0,0.0,0.0,0.0,0.97,-23.0
2025-11-09T16:45:31.732040,69,-0.33,0.82,198.44,3048.32,0.0,0.005,0.015,1.041,69683.36,28.9,0,0,0.0,0.0,0.0,0.0,0.97,-23.0
2025-11-09T16:45:31.830758,70,-0.33,0.82,198.42,3048.32,0.0,0.005,0.015,1.043,69683.36,28.88,0,0,0.0,0.0,0.0,0.0,0.97,-23.0
2025-11-09T16:45:31.929133,71,-0.33,0.81,198.41,3048.32,0.0,0.006,0.015,1.044,69683.36,28.87,0,0,0.0,0.0,0.0,0.0,0.97,-23.0
2025-11-09T16:45:32.031232,72,-0.33,0.82,198.39,3048.32,0.0,0.006,0.016,1.042,69683.36,28.91,0,0,0.0,0.0,0.0,0.0,0.97,-23.0
2025-11-09T16:45:32.129691,73,-0.33,0.82,198.38,3048.32,0.0,0.004,0.014,1.042,69683.36,28.91,0,0,0.0,0.0,0.0,0.0,0.97,-23.0
2025-11-09T16:45:32.231614,74,-0.33,0.82,198.37,3048.32,0.0,0.007,0.016,1.042,69683.36,28.91,0,0,0.0,0.0,0.0,0.0,0.97,-23.0
2025-11-09T16:45:32.330079,75,-0.33,0.82,198.37,3048.32,0.0,0.005,0.015,1.043,69683.36,28.93,0,0,0.0,0.0,0.0,0.0,0.97,-23.0
2025-11-09T16:45:32.428922,76,-0.33,0.82,198.36,3048.32,0.0,0.005,0.014,1.041,69683.36,28.89,0,0,0.0,0.0,0.0,0.0,0.97,-23.0
2025-11-09T16:45:32.530926,77,-0.33,0.82,198.33,3048.32,0.0,0.005,0.016,1.042,69683.36,28.95,0,0,0.0,0.0,0.0,0.0,0.97,-24.0
2025-11-09T16:45:32.629385,78,-0.33,0.82,198.3,3048.32,0.0,0.005,0.015,1.043,69683.36,28.9,0,0,0.0,0.0,0.0,0.0,0.97,-23.0
2025-11-09T16:45:32.731516,79,-0.33,0.82,198.29,3048.32,0.0,0.007,0.015,1.042,69683.36,28.95,0,0,0.0,0.0,0.0,0.0,0.97,-22.0
2025-11-09T16:45:32.830030,80,-0.33,0.82,198.28,3048.32,0.0,0.007,0.014,1.041,69683.36,28.93,0,0,0.0,0.0,0.0,0.0,0.97,-22.0
2025-11-09T16:45:32.932242,81,-0.33,0.82,198.28,3048.32,0.0,0.004,0.016,1.041,69683.36,28.89,0,0,0.0,0.0,0.0,0.0,0.97,-24.0
2025-11-09T16:45:33.030798,82,-0.33,0.82,198.27,3048.32,0.0,0.005,0.015,1.04,69683.36,28.93,0,0,0.0,0.0,0.0,0.0,0.97,-24.0
2025-11-09T16:45:33.129494,83,-0.33,0.82,198.27,3048.32,0.0,0.005,0.015,1.042,69683.36,28.9,0,0,0.0,0.0,0.0,0.0,0.97,-23.0
2025-11-09T16:45:33.231176,84,-0.33,0.82,198.27,3048.32,0.0,0.006,0.015,1.043,69683.36,28.91,0,0,0.0,0.0,0.0,0.0,0.97,-23.0
2025-11-09T16:45:33.329849,85,-0.33,0.82,198.27,3048.32,0.0,0.006,0.015,1.043,69683.36,28.9,0,0,0.0,0.0,0.0,0.0,0.97,-23.0
2025-11-09T16:45:33.431782,86,-0.33,0.82,198.27,3048.32,0.0,0.006,0.014,1.042,69683.36,28.91,0,0,0.0,0.0,0.0,0.0,0.97,-23.0
2025-11-09T16:45:33.530448,87,-0.33,0.82,198.27,3048.32,0.0,0.007,0.016,1.042,69683.36,28.9,0,0,0.0,0.0,0.0,0.0,0.97,-24.0
2025-11-09T16:45:33.628890,88,-0.33,0.82,198.28,3048.32,0.0,0.005,0.014,1.044,69683.36,28.94,0,0,0.0,0.0,0.0,0.0,0.97,-23.0
2025-11-09T16:45:33.731008,89,-0.33,0.82,198.3,3048.32,0.0,0.004,0.015,1.042,69683.36,28.94,0,0,0.0,0.0,0.0,0.0,0.97,-24.0
2025-11-09T16:45:33.829813,90,-0.33,0.82,198.3,3048.32,0.0,0.003,0.015,1.042,69683.36,28.92,0,0,0.0,0.0,0.0,0.0,0.97,-23.0
2025-11-09T16:45:33.931695,91,-0.33,0.82,198.29,3048.32,0.0,0.006,0.015,1.043,69683.36,28.93,0,0,0.0,0.0,0.0,0.0,0.97,-22.0
2025-11-09T16:45:34.030262,92,-0.33,0.82,198.28,3048.32,0.0,0.006,0.015,1.043,69683.36,28.91,0,0,0.0,0.0,0.0,0.0,0.97,-23.0
2025-11-09T16:45:34.132321,93,-0.33,0.82,198.28,3048.32,0.0,0.006,0.015,1.042,69683.36,28.93,0,0,0.0,0.0,0.0,0.0,0.97,-23.0
2025-11-09T16:45:34.231033,94,-0.33,0.82,198.29,3048.32,0.0,0.007,0.016,1.041,69683.36,28.93,0,0,0.0,0.0,0.0,0.0,0.97,-23.0
2025-11-09T16:45:34.329508,95,-0.33,0.82,198.31,3048.32,0.0,0.007,0.015,1.043,69683.36,28.91,0,0,0.0,0.0,0.0,0.0,0.97,-23.0
2025-11-09T16:45:34.431289,96,-0.33,0.82,198.3,3048.32,0.0,0.005,0.014,1.04,69683.36,28.91,0,0,0.0,0.0,0.0,0.0,0.97,-23.0
2025-11-09T16:45:34.530030,97,-0.33,0.82,198.31,3048.32,0.0,0.006,0.015,1.041,69683.36,28.93,0,0,0.0,0.0,0.0,0.0,0.97,-23.0
2025-11-09T16:45:34.631853,98,-0.33,0.82,198.3,3048.32,0.0,0.006,0.014,1.042,69683.36,28.96,0,0,0.0,0.0,0.0,0.0,0.97,-22.0
2025-11-09T16:45:34.730333,99,-0.33,0.82,198.32,3048.32,0.0,0.003,0.014,1.041,69683.36,28.93,0,0,0.0,0.0,0.0,0.0,0.97,-22.0
2025-11-09T16:45:34.832502,100,-0.33,0.82,198.31,3048.32,0.0,0.004,0.016,1.046,69683.36,28.95,0,0,0.0,0.0,0.0,0.0,0.97,-23.0
2025-11-09T16:45:34.930989,101,-0.33,0.82,198.32,3048.32,0.0,0.006,0.015,1.043,69683.36,28.93,0,0,0.0,0.0,0.0,0.0,0.97,-23.0
2025-11-09T16:45:35.029589,102,-0.33,0.82,198.32,3048.32,0.0,0.005,0.016,1.043,69683.36,28.95,0,0,0.0,0.0,0.0,0.0,0.97,-22.0
2025-11-09T16:45:35.131657,103,-0.33,0.82,198.33,3048.32,0.0,0.004,0.016,1.041,69683.36,28.96,0,0,0.0,0.0,0.0,0.0,0.97,-23.0
2025-11-09T16:45:35.230267,104,-0.33,0.82,198.34,3048.32,0.0,0.005,0.014,1.041,69683.36,28.96,0,0,0.0,0.0,0.0,0.0,0.97,-23.0
2025-11-09T16:45:35.332238,105,-0.33,0.82,198.36,3048.32,0.0,0.005,0.014,1.042,69683.36,28.93,0,0,0.0,0.0,0.0,0.0,0.97,-23.0
2025-11-09T16:45:35.430836,106,-0.33,0.82,198.37,3048.32,0.0,0.005,0.015,1.043,69683.36,28.91,0,0,0.0,0.0,0.0,0.0,0.97,-23.0
2025-11-09T16:45:35.529395,107,-0.33,0.82,198.38,3048.32,0.0,0.004,0.015,1.044,69683.36,28.98,0,0,0.0,0.0,0.0,0.0,0.97,-23.0
2025-11-09T16:45:35.631524,108,-0.33,0.82,198.37,3048.32,0.0,0.006,0.015,1.042,69683.36,28.97,0,0,0.0,0.0,0.0,0.0,0.97,-23.0
2025-11-09T16:45:35.729919,109,-0.33,0.82,198.37,3048.32,0.0,0.005,0.015,1.04,69683.36,28.98,0,0,0.0,0.0,0.0,0.0,0.97,-22.0
2025-11-09T16:45:35.832132,110,-0.33,0.82,198.37,3048.32,0.0,0.005,0.015,1.042,69683.36,28.93,0,0,0.0,0.0,0.0,0.0,0.97,-22.0
2025-11-09T16:45:35.930395,111,-0.33,0.82,198.37,3048.32,0.0,0.005,0.016,1.043,69683.36,28.96,0,0,0.0,0.0,0.0,0.0,0.97,-22.0
2025-11-09T16:45:36.032561,112,-0.33,0.82,198.36,3048.32,0.0,0.006,0.015,1.043,69683.36,28.98,0,0,0.0,0.0,0.0,0.0,0.97,-22.0
2025-11-09T16:45:36.131299,113,-0.33,0.82,198.36,3048.32,0.0,0.005,0.014,1.042,69683.36,28.95,0,0,0.0,0.0,0.0,0.0,0.97,-23.0
2025-11-09T16:45:36.229846,114,-0.33,0.82,198.34,3048.32,0.0,0.004,0.015,1.041,69683.36,28.93,0,0,0.0,0.0,0.0,0.0,0.97,-23.0
2025-11-09T16:45:36.331878,115,-0.33,0.82,198.32,3048.32,0.0,0.005,0.013,1.043,69683.36,28.97,0,0,0.0,0.0,0.0,0.0,0.97,-22.0
2025-11-09T16:45:36.430311,116,-0.33,0.82,198.31,3048.32,0.0,0.004,0.014,1.044,69683.36,28.93,0,0,0.0,0.0,0.0,0.0,0.97,-22.0
2025-11-09T16:45:36.532436,117,-0.33,0.82,198.3,3048.32,0.0,0.005,0.014,1.042,69683.36,28.93,0,0,0.0,0.0,0.0,0.0,0.97,-23.0
2025-11-09T16:45:36.630904,118,-0.33,0.82,198.3,3048.32,0.0,0.007,0.016,1.044,69683.36,28.94,0,0,0.0,0.0,0.0,0.0,0.97,-23.0
2025-11-09T16:45:36.732952,119,-0.33,0.82,198.3,3048.32,0.0,0.005,0.017,1.043,69683.36,28.89,0,0,0.0,0.0,0.0,0.0,0.97,-22.0
2025-11-09T16:45:36.831611,120,-0.33,0.82,198.28,3048.32,0.0,0.004,0.016,1.043,69683.36,28.95,0,0,0.0,0.0,0.0,0.0,0.97,-22.0
2025-11-09T16:45:36.930237,121,-0.33,0.82,198.28,3048.32,0.0,0.006,0.016,1.041,69683.36,28.94,0,0,0.0,0.0,0.0,0.0,0.97,-23.0
2025-11-09T16:45:37.032281,122,-0.33,0.82,198.29,3048.32,0.0,0.004,0.015,1.046,69683.36,28.95,0,0,0.0,0.0,0.0,0.0,0.97,-23.0
2025-11-09T16:45:37.130801,123,-0.33,0.82,198.3,3048.32,0.0,0.003,0.014,1.042,69683.36,28.92,0,0,0.0,0.0,0.0,0.0,0.97,-23.0
2025-11-09T16:45:37.232782,124,-0.33,0.82,198.3,3048.32,0.0,0.005,0.015,1.041,69683.36,28.93,0,0,0.0,0.0,0.0,0.0,0.97,-24.0
2025-11-09T16:45:37.331453,125,-0.33,0.82,198.3,3048.32,0.0,0.006,0.015,1.042,69683.36,28.92,0,0,0.0,0.0,0.0,0.0,0.97,-23.0
2025-11-09T16:45:37.429932,126,-0.33,0.82,198.29,3048.32,0.0,0.006,0.015,1.042,69683.36,28.89,0,0,0.0,0.0,0.0,0.0,0.97,-23.0
2025-11-09T16:45:37.531984,127,-0.33,0.82,198.29,3048.32,0.0,0.005,0.016,1.042,69683.36,28.98,0,0,0.0,0.0,0.0,0.0,0.97,-23.0
2025-11-09T16:45:37.630445,128,-0.33,0.82,198.29,3048.32,0.0,0.006,0.015,1.042,69683.36,28.95,0,0,0.0,0.0,0.0,0.0,0.97,-23.0
2025-11-09T16:45:37.732526,129,-0.33,0.82,198.27,3048.32,0.0,0.005,0.015,1.043,69683.36,28.93,0,0,0.0,0.0,0.0,0.0,0.97,-23.0
2025-11-09T16:45:37.831010,130,-0.33,0.82,198.27,3048.32,0.0,0.004,0.014,1.043,69683.36,28.96,0,0,0.0,0.0,0.0,0.0,0.97,-23.0
2025-11-09T16:45:37.933101,131,-0.33,0.82,198.25,3048.32,0.0,0.005,0.017,1.041,69683.36,28.95,0,0,0.0,0.0,0.0,0.0,0.97,-23.0
2025-11-09T16:45:38.031711,132,-0.33,0.82,198.24,3048.32,0.0,0.006,0.015,1.043,69683.36,28.95,0,0,0.0,0.0,0.0,0.0,0.97,-22.0
2025-11-09T16:45:38.130358,133,-0.33,0.82,198.22,3048.32,0.0,0.005,0.016,1.042,69683.36,28.96,0,0,0.0,0.0,0.0,0.0,0.97,-23.0
2025-11-09T16:45:38.232343,134,-0.33,0.82,198.21,3048.32,0.0,0.006,0.015,1.043,69683.36,28.94,0,0,0.0,0.0,0.0,0.0,0.97,-23.0
2025-11-09T16:45:38.330939,135,-0.33,0.82,198.18,3048.32,0.0,0.004,0.014,1.041,69683.36,28.95,0,0,0.0,0.0,0.0,0.0,0.97,-23.0
2025-11-09T16:45:38.432751,136,-0.33,0.81,198.18,3048.32,0.0,0.007,0.015,1.041,69683.36,28.95,0,0,0.0,0.0,0.0,0.0,0.97,-22.0
2025-11-09T16:45:38.531264,137,-0.33,0.82,198.18,3048.32,0.0,0.006,0.016,1.043,69683.36,28.96,0,0,0.0,0.0,0.0,0.0,0.97,-23.0
2025-11-09T16:45:38.629859,138,-0.33,0.82,198.18,3048.32,0.0,0.004,0.014,1.042,69683.36,28.9,0,0,0.0,0.0,0.0,0.0,0.97,-23.0
2025-11-09T16:45:38.731904,139,-0.33,0.82,198.17,3048.32,0.0,0.005,0.015,1.041,69683.36,28.92,0,0,0.0,0.0,0.0,0.0,0.97,-23.0
2025-11-09T16:45:38.830553,140,-0.33,0.82,198.18,3048.32,0.0,0.006,0.016,1.042,69683.36,28.96,0,0,0.0,0.0,0.0,0.0,0.97,-22.0
2025-11-09T16:45:38.932469,141,-0.33,0.82,198.16,3048.32,0.0,0.007,0.014,1.042,69683.36,28.93,0,0,0.0,0.0,0.0,0.0,0.97,-23.0
2025-11-09T16:45:39.030982,142,-0.33,0.82,198.17,3048.32,0.0,0.004,0.015,1.042,69683.36,28.91,0,0,0.0,0.0,0.0,0.0,0.97,-23.0
2025-11-09T16:45:39.133091,143,-0.33,0.82,198.18,3048.32,0.0,0.004,0.015,1.043,69683.36,28.96,0,0,0.0,0.0,0.0,0.0,0.97,-23.0
2025-11-09T16:45:39.231710,144,-0.33,0.82,198.18,3048.32,0.0,0.005,0.015,1.042,69683.36,28.9,0,0,0.0,0.0,0.0,0.0,0.97,-23.0
2025-11-09T16:45:39.330340,145,-0.33,0.81,198.17,3048.32,0.0,0.005,0.015,1.042,69683.36,28.94,0,0,0.0,0.0,0.0,0.0,0.97,-22.0
2025-11-09T16:45:39.432290,146,-0.33,0.82,198.16,3048.32,0.0,0.006,0.015,1.041,69683.36,28.9,0,0,0.0,0.0,0.0,0.0,0.97,-23.0
2025-11-09T16:45:39.530887,147,-0.33,0.82,198.17,3048.32,0.0,0.004,0.014,1.041,69683.36,28.93,0,0,0.0,0.0,0.0,0.0,0.97,-23.0
2025-11-09T16:45:39.632847,148,-0.33,0.82,198.17,3048.32,0.0,0.005,0.015,1.043,69683.36,28.93,0,0,0.0,0.0,0.0,0.0,0.97,-23.0
2025-11-09T16:45:39.731492,149,-0.33,0.82,198.16,3048.32,0.0,0.005,0.016,1.042,69683.36,28.9,0,0,0.0,0.0,0.0,0.0,0.97,-24.0
2025-11-09T16:45:39.830169,150,-0.33,0.82,198.16,3048.32,0.0,0.006,0.015,1.042,69683.36,28.89,0,0,0.0,0.0,0.0,0.0,0.97,-24.0
2025-11-09T16:45:39.932033,151,-0.33,0.82,198.17,3048.32,0.0,0.004,0.015,1.043,69683.36,28.97,0,0,0.0,0.0,0.0,0.0,0.97,-23.0
2025-11-09T16:45:40.030712,152,-0.33,0.82,198.2,3048.32,0.0,0.004,0.015,1.042,69683.36,28.94,0,0,0.0,0.0,0.0,0.0,0.97,-22.0
2025-11-09T16:45:40.132613,153,-0.33,0.82,198.21,3048.32,0.0,0.005,0.015,1.043,69683.36,28.92,0,0,0.0,0.0,0.0,0.0,0.97,-23.0
2025-11-09T16:45:40.231266,154,-0.33,0.82,198.21,3048.32,0.0,0.005,0.015,1.042,69683.36,28.93,0,0,0.0,0.0,0.0,0.0,0.97,-23.0
2025-11-09T16:45:40.333123,155,-0.33,0.82,198.2,3048.32,0.0,0.007,0.014,1.042,69683.36,28.93,0,0,0.0,0.0,0.0,0.0,0.97,-24.0
2025-11-09T16:45:40.431671,156,-0.33,0.82,198.2,3048.32,0.0,0.005,0.015,1.043,69683.36,28.95,0,0,0.0,0.0,0.0,0.0,0.97,-23.0
2025-11-09T16:45:40.530094,157,-0.33,0.82,198.21,3048.32,0.0,0.005,0.016,1.043,69683.36,28.96,0,0,0.0,0.0,0.0,0.0,0.97,-23.0
2025-11-09T16:45:40.632456,158,-0.33,0.82,198.21,3048.32,0.0,0.007,0.015,1.042,69683.36,28.93,0,0,0.0,0.0,0.0,0.0,0.97,-23.0
2025-11-09T16:45:40.731035,159,-0.33,0.82,198.21,3048.32,0.0,0.004,0.014,1.042,69683.36,28.93,0,0,0.0,0.0,0.0,0.0,0.97,-24.0
2025-11-09T16:45:40.833014,160,-0.33,0.82,198.21,3048.32,0.0,0.005,0.015,1.043,69683.36,28.95,0,0,0.0,0.0,0.0,0.0,0.97,-24.0
2025-11-09T16:45:40.931514,161,-0.33,0.82,198.22,3048.32,0.0,0.005,0.015,1.043,69683.36,28.91,0,0,0.0,0.0,0.0,0.0,0.97,-22.0
2025-11-09T16:45:41.030437,162,-0.33,0.82,198.23,3048.32,0.0,0.004,0.014,1.043,69683.36,28.9,0,0,0.0,0.0,0.0,0.0,0.97,-23.0
2025-11-09T16:45:41.132169,163,-0.33,0.82,198.25,3048.32,0.0,0.006,0.016,1.043,69683.36,28.97,0,0,0.0,0.0,0.0,0.0,0.97,-23.0
2025-11-09T16:45:41.230690,164,-0.33,0.82,198.27,3048.32,0.0,0.004,0.013,1.042,69683.36,28.93,0,0,0.0,0.0,0.0,0.0,0.97,-22.0
2025-11-09T16:45:41.332725,165,-0.33,0.82,198.28,3048.32,0.0,0.006,0.014,1.043,69683.36,28.95,0,0,0.0,0.0,0.0,0.0,0.97,-22.0
2025-11-09T16:45:41.431217,166,-0.33,0.82,198.29,3048.32,0.0,0.008,0.016,1.042,69683.36,28.93,0,0,0.0,0.0,0.0,0.0,0.97,-22.0
2025-11-09T16:45:41.533415,167,-0.33,0.82,198.31,3048.32,0.0,0.005,0.014,1.041,69683.36,28.9,0,0,0.0,0.0,0.0,0.0,0.97,-22.0
2025-11-09T16:45:41.631862,168,-0.33,0.82,198.33,3048.32,0.0,0.006,0.015,1.042,69683.36,28.93,0,0,0.0,0.0,0.0,0.0,0.97,-23.0
2025-11-09T16:45:41.730359,169,-0.33,0.82,198.34,3048.32,0.0,0.005,0.014,1.041,69683.36,28.96,0,0,0.0,0.0,0.0,0.0,0.97,-24.0
2025-11-09T16:45:41.832531,170,-0.33,0.82,198.35,3048.32,0.0,0.005,0.014,1.042,69683.36,28.91,0,0,0.0,0.0,0.0,0.0,0.97,-23.0
2025-11-09T16:45:41.931277,171,-0.33,0.82,198.35,3048.32,0.0,0.006,0.014,1.044,69683.36,28.95,0,0,0.0,0.0,0.0,0.0,0.97,-24.0
2025-11-09T16:45:42.033256,172,-0.33,0.82,198.34,3048.32,0.0,0.005,0.015,1.042,69683.36,28.92,0,0,0.0,0.0,0.0,0.0,0.97,-24.0
2025-11-09T16:45:42.131849,173,-0.33,0.82,198.33,3048.32,0.0,0.005,0.018,1.047,69683.36,28.96,0,0,0.0,0.0,0.0,0.0,0.97,-23.0
2025-11-09T16:45:42.233852,174,-0.33,0.73,198.32,3048.32,0.0,-0.03,0.005,1.078,69683.36,29.0,0,0,0.0,0.0,0.0,0.0,0.97,-23.0
2025-11-09T16:45:42.332300,175,-0.34,0.85,198.31,3048.32,0.0,0.009,0.105,1.054,69683.36,28.95,0,0,0.0,0.0,0.0,0.0,0.97,-23.0
2025-11-09T16:45:42.431093,176,-0.4,0.76,198.3,3048.32,0.0,0.04,0.038,0.999,69683.36,28.96,0,0,0.0,0.0,0.0,0.0,0.97,-23.0
2025-11-09T16:45:42.532916,177,-0.45,0.75,198.3,3048.32,0.0,0.042,-0.016,1.015,69683.36,28.95,0,0,0.0,0.0,0.0,0.0,0.97,-23.0
2025-11-09T16:45:42.631448,178,-0.46,0.71,198.29,3048.32,0.0,0.031,-0.009,1.027,69683.36,28.97,0,0,0.0,0.0,0.0,0.0,0.97,-24.0
2025-11-09T16:45:42.733349,179,-0.46,0.7,198.28,3048.32,0.0,0.011,0.002,1.059,69683.36,28.97,0,0,0.0,0.0,0.0,0.0,0.97,-23.0
2025-11-09T16:45:42.832134,180,-0.42,0.72,198.27,3048.32,0.0,0.038,-0.03,1.093,69683.36,28.97,0,0,0.0,0.0,0.0,0.0,0.97,-23.0
2025-11-09T16:45:42.930509,181,-0.51,0.73,198.24,3048.32,0.0,0.034,0.037,0.966,69683.36,28.93,0,0,0.0,0.0,0.0,0.0,0.97,-23.0
2025-11-09T16:45:43.032799,182,-0.57,0.71,198.24,3048.32,0.0,0.036,-0.002,1.139,69683.36,28.93,0,0,0.0,0.0,0.0,0.0,0.97,-24.0
2025-11-09T16:45:43.131254,183,-0.66,0.73,198.23,3048.32,0.0,0.074,0.043,1.02,69683.36,28.95,0,0,0.0,0.0,0.0,0.0,0.97,-23.0
2025-11-09T16:45:43.233190,184,-0.79,0.72,198.21,3048.32,0.0,0.087,0.016,1.06,69683.36,28.98,0,0,0.0,0.0,0.0,0.0,0.97,-24.0
2025-11-09T16:45:43.331801,185,-0.91,0.7,198.19,3048.32,0.0,0.039,0.009,1.116,69683.36,28.95,0,0,0.0,0.0,0.0,0.0,0.97,-23.0
2025-11-09T16:45:43.433799,186,-1.13,0.72,198.15,3048.32,0.0,0.135,0.0,1.017,69683.36,28.97,0,0,0.0,0.0,0.0,0.0,0.97,-23.0
2025-11-09T16:45:43.532274,187,-1.34,0.7,198.12,3048.32,0.0,0.154,-0.024,1.01,69683.36,28.98,0,0,0.0,0.0,0.0,0.0,0.97,-23.0
2025-11-09T16:45:43.630805,188,-1.56,0.72,198.07,3048.32,0.0,0.163,0.034,1.003,69683.36,28.95,0,0,0.0,0.0,0.0,0.0,0.97,-23.0
2025-11-09T16:45:43.732910,189,-1.8,0.71,198.03,3048.32,0.0,0.17,0.006,1.035,69683.36,28.96,0,0,0.0,0.0,0.0,0.0,0.97,-23.0
2025-11-09T16:45:43.831622,190,-2.07,0.71,197.98,3048.32,0.0,0.193,0.012,1.033,69683.36,28.96,0,0,0.0,0.0,0.0,0.0,0.97,-23.0
2025-11-09T16:45:43.933435,191,-2.34,0.71,197.94,3048.32,0.0,0.19,0.016,1.031,69683.36,28.96,0,0,0.0,0.0,0.0,0.0,0.97,-23.0
2025-11-09T16:45:44.031929,192,-2.64,0.73,197.88,3048.32,0.0,0.197,0.021,1.044,69683.36,29.0,0,0,0.0,0.0,0.0,0.0,0.97,-23.0
2025-11-09T16:45:44.130963,193,-2.95,0.75,197.83,3048.32,0.0,0.236,0.01,1.019,69683.36,28.95,0,0,0.0,0.0,0.0,0.0,0.97,-23.0
2025-11-09T16:45:44.232879,194,-3.26,0.75,197.78,3048.32,0.0,0.237,0.025,0.998,69683.36,28.94,0,0,0.0,0.0,0.0,0.0,0.97,-24.0
2025-11-09T16:45:44.331435,195,-3.54,0.77,197.74,3048.32,0.0,0.237,0.035,0.988,69683.36,28.97,0,0,0.0,0.0,0.0,0.0,0.97,-22.0
2025-11-09T16:45:44.433355,196,-3.79,0.77,197.72,3048.32,0.0,0.222,0.013,0.974,69683.36,28.98,0,0,0.0,0.0,0.0,0.0,0.97,-22.0
2025-11-09T16:45:44.532026,197,-4.0,0.78,197.68,3048.32,0.0,0.199,0.003,1.021,69683.36,28.97,0,0,0.0,0.0,0.0,0.0,0.97,-24.0
2025-11-09T16:45:44.633867,198,-4.16,0.79,197.66,3048.32,0.0,0.169,0.029,1.022,69683.36,28.98,0,0,0.0,0.0,0.0,0.0,0.97,-23.0
2025-11-09T16:45:44.732580,199,-4.26,0.78,197.66,3048.32,0.0,0.138,-0.022,1.02,69683.36,28.98,0,0,0.0,0.0,0.0,0.0,0.97,-23.0
2025-11-09T16:45:44.831180,200,-4.29,0.79,197.65,3048.32,0.0,0.106,0.019,1.044,69683.36,28.96,0,0,0.0,0.0,0.0,0.0,0.97,-23.0
2025-11-09T16:45:44.933095,201,-4.24,0.8,197.67,3048.32,0.0,0.055,0.033,1.042,69683.36,28.95,0,0,0.0,0.0,0.0,0.0,0.97,-25.0
2025-11-09T16:45:45.031706,202,-4.14,0.77,197.7,3048.32,0.0,0.001,0.008,1.11,69683.36,28.95,0,0,0.0,0.0,0.0,0.0,0.97,-23.0
2025-11-09T16:45:45.133592,203,-4.04,0.77,197.72,3048.32,0.0,0.005,0.013,1.042,69683.36,28.96,0,0,0.0,0.0,0.0,0.0,0.97,-23.0
2025-11-09T16:45:45.232335,204,-3.92,0.78,197.74,3048.32,0.0,0.004,0.02,1.042,69683.36,28.94,0,0,0.0,0.0,0.0,0.0,0.97,-24.0
2025-11-09T16:45:45.330801,205,-3.82,0.78,197.76,3048.32,0.0,0.003,0.019,1.044,69683.36,28.95,0,0,0.0,0.0,0.0,0.0,0.97,-23.0
2025-11-09T16:45:45.432728,206,-3.71,0.79,197.77,3048.32,0.0,0.004,0.018,1.043,69683.36,28.99,0,0,0.0,0.0,0.0,0.0,0.97,-24.0
2025-11-09T16:45:45.531420,207,-3.61,0.79,197.8,3048.32,0.0,0.01,0.004,1.024,69683.36,29.0,0,0,0.0,0.0,0.0,0.0,0.97,-24.0
2025-11-09T16:45:45.633448,208,-3.51,0.79,197.81,3048.32,0.0,0.003,0.02,1.051,69683.36,28.91,0,0,0.0,0.0,0.0,0.0,0.97,-24.0
2025-11-09T16:45:45.731929,209,-3.42,0.79,197.83,3048.32,0.0,0.004,0.016,1.044,69683.36,28.96,0,0,0.0,0.0,0.0,0.0,0.97,-23.0
2025-11-09T16:45:45.833960,210,-3.33,0.79,197.86,3048.32,0.0,0.007,0.014,1.041,69683.36,28.97,0,0,0.0,0.0,0.0,0.0,0.97,-24.0
2025-11-09T16:45:45.932664,211,-3.24,0.79,197.89,3048.32,0.0,0.005,0.013,1.041,69683.36,28.9,0,0,0.0,0.0,0.0,0.0,0.97,-23.0
2025-11-09T16:45:46.030861,212,-3.15,0.79,197.91,3048.32,0.0,0.006,0.014,1.042,69683.36,29.0,0,0,0.0,0.0,0.0,0.0,0.97,-23.0
2025-11-09T16:45:46.133198,213,-3.07,0.79,197.94,3048.32,0.0,0.008,0.012,1.039,69683.36,28.95,0,0,0.0,0.0,0.0,0.0,0.97,-24.0
2025-11-09T16:45:46.231858,214,-3.07,0.87,197.95,3048.32,0.0,0.023,0.032,1.02,69683.36,28.96,0,0,0.0,0.0,0.0,0.0,0.97,-24.0
2025-11-09T16:45:46.333767,215,-2.97,0.82,197.96,3048.32,0.0,0.009,0.016,1.004,69683.36,28.9,0,0,0.0,0.0,0.0,0.0,0.97,-24.0
2025-11-09T16:45:46.432163,216,-2.93,0.75,197.95,3048.32,0.0,0.008,-0.071,1.039,69683.36,28.96,0,0,0.0,0.0,0.0,0.0,0.97,-24.0
2025-11-09T16:45:46.534292,217,-2.87,0.67,197.92,3048.32,0.0,0.061,-0.049,0.991,69683.36,28.98,0,0,0.0,0.0,0.0,0.0,0.97,-24.0
2025-11-09T16:45:46.632997,218,-2.75,0.74,197.91,3048.32,0.0,-0.006,0.042,1.12,69683.36,28.97,0,0,0.0,0.0,0.0,0.0,0.97,-23.0
2025-11-09T16:45:46.731551,219,-2.69,0.85,197.88,3048.32,0.0,0.006,0.114,1.08,69683.36,28.93,0,0,0.0,0.0,0.0,0.0,0.97,-23.0
2025-11-09T16:45:46.833555,220,-2.7,1.0,197.8,3048.32,0.0,0.066,0.115,0.915,69683.36,28.96,0,0,0.0,0.0,0.0,0.0,0.97,-22.0
2025-11-09T16:45:46.931963,221,-2.73,1.26,197.72,3048.32,0.0,0.058,0.11,0.983,69683.36,28.97,0,0,0.0,0.0,0.0,0.0,0.97,-22.0
2025-11-09T16:45:47.034012,222,-2.77,1.68,197.62,3048.32,0.0,0.078,0.251,0.997,69683.36,28.95,0,0,0.0,0.0,0.0,0.0,0.97,-23.0
2025-11-09T16:45:47.132675,223,-2.78,2.18,197.49,3048.32,0.0,0.076,0.331,0.925,69683.36,28.97,0,0,0.0,0.0,0.0,0.0,0.97,-22.0
2025-11-09T16:45:47.231378,224,-2.82,2.77,197.35,3048.32,0.0,0.046,0.369,0.994,69683.36,28.99,0,0,0.0,0.0,0.0,0.0,0.97,-23.0
2025-11-09T16:45:47.333148,225,-2.88,3.46,197.19,3048.32,0.0,0.093,0.423,0.902,69683.36,28.97,0,0,0.0,0.0,0.0,0.0,0.97,-22.0
2025-11-09T16:45:47.431937,226,-2.96,4.18,197.02,3048.32,0.0,0.131,0.517,0.931,69683.36,29.0,0,0,0.0,0.0,0.0,0.0,0.97,-22.0
2025-11-09T16:45:47.533793,227,-3.05,4.91,196.82,3048.32,0.0,0.119,0.519,0.853,69683.36,28.97,0,0,0.0,0.0,0.0,0.0,0.97,-22.0
2025-11-09T16:45:47.632434,228,-3.16,5.72,196.62,3048.32,0.0,0.119,0.528,0.824,69683.36,29.0,0,0,0.0,0.0,0.0,0.0,0.97,-22.0
2025-11-09T16:45:47.734375,229,-3.24,6.55,196.42,3048.32,0.0,0.087,0.592,0.829,69683.36,28.98,0,0,0.0,0.0,0.0,0.0,0.97,-22.0
2025-11-09T16:45:47.832950,230,-3.31,7.25,196.25,3048.32,0.0,0.083,0.545,0.861,69683.36,28.95,0,0,0.0,0.0,0.0,0.0,0.97,-22.0
2025-11-09T16:45:47.931778,231,-3.42,7.83,196.11,3048.32,0.0,0.118,0.476,0.872,69683.36,29.02,0,0,0.0,0.0,0.0,0.0,0.97,-22.0
2025-11-09T16:45:48.033620,232,-3.45,8.18,196.03,3048.32,0.0,0.084,0.36,0.979,69683.36,29.0,0,0,0.0,0.0,0.0,0.0,0.97,-24.0
2025-11-09T16:45:48.132119,233,-3.52,8.4,195.98,3048.32,0.0,0.098,0.248,1.003,69683.36,29.02,0,0,0.0,0.0,0.0,0.0,0.97,-23.0
2025-11-09T16:45:48.234141,234,-3.55,8.5,195.99,3048.32,0.0,0.064,0.196,1.088,69683.36,29.01,0,0,0.0,0.0,0.0,0.0,0.97,-23.0
2025-11-09T16:45:48.332748,235,-3.63,8.49,196.02,3048.32,0.0,0.103,0.197,1.0,69683.36,29.0,0,0,0.0,0.0,0.0,0.0,0.97,-24.0
2025-11-09T16:45:48.431502,236,-3.63,8.38,196.05,3048.32,0.0,0.05,0.113,1.001,69683.36,29.01,0,0,0.0,0.0,0.0,0.0,0.97,-24.0
2025-11-09T16:45:48.533387,237,-3.64,8.3,196.08,3048.32,0.0,0.059,0.091,1.027,69683.36,28.98,0,0,0.0,0.0,0.0,0.0,0.97,-24.0
2025-11-09T16:45:48.631974,238,-3.61,8.2,196.12,3048.32,0.0,0.114,0.026,0.96,69683.36,29.01,0,0,0.0,0.0,0.0,0.0,0.97,-23.0
2025-11-09T16:45:48.733855,239,-3.6,8.11,196.16,3048.32,0.0,0.025,0.122,1.114,69683.36,28.98,0,0,0.0,0.0,0.0,0.0,0.97,-24.0
2025-11-09T16:45:48.832600,240,-3.56,8.0,196.2,3048.32,0.0,0.025,0.114,1.102,69683.36,28.99,0,0,0.0,0.0,0.0,0.0,0.97,-24.0
2025-11-09T16:45:48.934457,241,-3.49,7.9,196.25,3048.32,0.0,0.046,0.099,1.031,69683.36,29.01,0,0,0.0,0.0,0.0,0.0,0.97,-24.0
2025-11-09T16:45:49.033019,242,-3.46,7.84,196.29,3048.32,0.0,0.026,0.112,1.081,69683.36,29.05,0,0,0.0,0.0,0.0,0.0,0.97,-24.0
2025-11-09T16:45:49.131827,243,-3.35,7.65,196.32,3048.32,0.0,-0.01,0.02,1.004,69683.36,28.96,0,0,0.0,0.0,0.0,0.0,0.97,-24.0
2025-11-09T16:45:49.233585,244,-3.25,7.47,196.36,3048.32,0.0,-0.021,0.039,1.009,69683.36,29.0,0,0,0.0,0.0,0.0,0.0,0.97,-24.0
2025-11-09T16:45:49.332325,245,-3.24,7.35,196.39,3048.32,0.0,0.02,0.026,1.081,69683.36,29.01,0,0,0.0,0.0,0.0,0.0,0.97,-24.0
2025-11-09T16:45:49.434251,246,-3.16,7.16,196.44,3048.32,0.0,0.002,0.025,1.055,69683.36,29.0,0,0,0.0,0.0,0.0,0.0,0.97,-23.0
2025-11-09T16:45:49.532901,247,-3.1,6.98,196.49,3048.32,0.0,0.007,0.015,1.073,69683.36,29.0,0,0,0.0,0.0,0.0,0.0,0.97,-24.0
2025-11-09T16:45:49.631532,248,-3.01,6.82,196.53,3048.32,0.0,0.003,0.028,1.046,69683.36,29.02,0,0,0.0,0.0,0.0,0.0,0.97,-24.0
2025-11-09T16:45:49.733578,249,-2.94,6.65,196.58,3048.32,0.0,0.004,-0.003,1.039,69683.36,29.03,0,0,0.0,0.0,0.0,0.0,0.97,-23.0
2025-11-09T16:45:49.831940,250,-2.86,6.49,196.61,3048.32,0.0,0.007,0.015,1.04,69683.36,29.03,0,0,0.0,0.0,0.0,0.0,0.97,-24.0
2025-11-09T16:45:49.933950,251,-2.78,6.32,196.66,3048.32,0.0,0.002,0.018,1.043,69683.36,28.98,0,0,0.0,0.0,0.0,0.0,0.97,-23.0
2025-11-09T16:45:50.032649,252,-2.71,6.16,196.69,3048.32,0.0,0.004,0.017,1.043,69683.36,29.03,0,0,0.0,0.0,0.0,0.0,0.97,-24.0
2025-11-09T16:45:50.134451,253,-2.64,6.01,196.73,3048.32,0.0,0.006,0.016,1.042,69683.36,29.02,0,0,0.0,0.0,0.0,0.0,0.97,-24.0
2025-11-09T16:45:50.233213,254,-2.57,5.86,196.76,3048.32,0.0,0.005,0.017,1.043,69683.36,28.98,0,0,0.0,0.0,0.0,0.0,0.97,-24.0
2025-11-09T16:45:50.331850,255,-2.5,5.71,196.8,3048.32,0.0,0.003,0.017,1.042,69683.36,29.02,0,0,0.0,0.0,0.0,0.0,0.97,-23.0
2025-11-09T16:45:50.433676,256,-2.44,5.57,196.83,3048.32,0.0,0.006,0.018,1.043,69683.36,29.02,0,0,0.0,0.0,0.0,0.0,0.97,-23.0
2025-11-09T16:45:50.532290,257,-2.38,5.43,196.85,3048.32,0.0,0.006,0.018,1.042,69683.36,28.98,0,0,0.0,0.0,0.0,0.0,0.97,-23.0
2025-11-09T16:45:50.634400,258,-2.32,5.3,196.87,3048.32,0.0,0.005,0.018,1.042,69683.36,29.01,0,0,0.0,0.0,0.0,0.0,0.97,-23.0
2025-11-09T16:45:50.733013,259,-2.26,5.17,196.9,3048.32,0.0,0.006,0.017,1.041,69683.36,28.97,0,0,0.0,0.0,0.0,0.0,0.97,-23.0
2025-11-09T16:45:50.831341,260,-2.2,5.05,196.92,3048.32,0.0,0.007,0.017,1.042,69683.36,28.97,0,0,0.0,0.0,0.0,0.0,0.97,-23.0
2025-11-09T16:45:50.933286,261,-2.14,4.92,196.97,3048.32,0.0,0.004,0.019,1.042,69683.36,29.0,0,0,0.0,0.0,0.0,0.0,0.97,-23.0
2025-11-09T16:45:51.031955,262,-2.09,4.81,197.0,3048.32,0.0,0.004,0.016,1.043,69683.36,29.0,0,0,0.0,0.0,0.0,0.0,0.97,-24.0
2025-11-09T16:45:51.133905,263,-2.03,4.69,197.04,3048.32,0.0,0.005,0.017,1.042,69683.36,28.97,0,0,0.0,0.0,0.0,0.0,0.97,-23.0
2025-11-09T16:45:51.232575,264,-1.98,4.58,197.07,3048.32,0.0,0.006,0.015,1.041,69683.36,28.98,0,0,0.0,0.0,0.0,0.0,0.97,-23.0
2025-11-09T16:45:51.334554,265,-1.93,4.47,197.1,3048.32,0.0,0.004,0.017,1.043,69683.36,28.98,0,0,0.0,0.0,0.0,0.0,0.97,-22.0
2025-11-09T16:45:51.433358,266,-1.88,4.37,197.14,3048.32,0.0,0.006,0.017,1.042,69683.36,28.96,0,0,0.0,0.0,0.0,0.0,0.97,-22.0
2025-11-09T16:45:51.531808,267,-1.84,4.27,197.15,3048.32,0.0,0.004,0.016,1.041,69683.36,28.97,0,0,0.0,0.0,0.0,0.0,0.97,-23.0
2025-11-09T16:45:51.633742,268,-1.79,4.17,197.15,3048.32,0.0,0.005,0.018,1.041,69683.36,28.98,0,0,0.0,0.0,0.0,0.0,0.97,-24.0
2025-11-09T16:45:51.732590,269,-1.75,4.07,197.14,3048.32,0.0,0.006,0.016,1.041,69683.36,29.03,0,0,0.0,0.0,0.0,0.0,0.97,-22.0
2025-11-09T16:45:51.834417,270,-1.7,3.98,197.16,3048.32,0.0,0.005,0.016,1.041,69683.36,28.98,0,0,0.0,0.0,0.0,0.0,0.97,-22.0
2025-11-09T16:45:51.932981,271,-1.66,3.89,197.16,3048.32,0.0,0.004,0.018,1.041,69683.36,28.96,0,0,0.0,0.0,0.0,0.0,0.97,-23.0
2025-11-09T16:45:52.034891,272,-1.62,3.8,197.18,3048.32,0.0,0.006,0.017,1.042,69683.36,28.99,0,0,0.0,0.0,0.0,0.0,0.97,-23.0
2025-11-09T16:45:52.133295,273,-1.58,3.72,197.19,3048.32,0.0,0.005,0.017,1.042,69683.36,28.94,0,0,0.0,0.0,0.0,0.0,0.97,-23.0
2025-11-09T16:45:52.231833,274,-1.54,3.63,197.19,3048.32,0.0,0.004,0.017,1.043,69683.36,28.96,0,0,0.0,0.0,0.0,0.0,0.97,-23.0
2025-11-09T16:45:52.334064,275,-1.51,3.55,197.19,3048.32,0.0,0.005,0.019,1.039,69683.36,29.0,0,0,0.0,0.0,0.0,0.0,0.97,-23.0
2025-11-09T16:45:52.432749,276,-1.47,3.48,197.22,3048.32,0.0,0.004,0.018,1.04,69683.36,28.98,0,0,0.0,0.0,0.0,0.0,0.97,-23.0
2025-11-09T16:45:52.534722,277,-1.43,3.4,197.25,3048.32,0.0,0.004,0.016,1.04,69683.36,28.95,0,0,0.0,0.0,0.0,0.0,0.97,-23.0
2025-11-09T16:45:52.633409,278,-1.4,3.33,197.25,3048.32,0.0,0.004,0.016,1.04,69683.36,28.93,0,0,0.0,0.0,0.0,0.0,0.97,-23.0
2025-11-09T16:45:52.731873,279,-1.37,3.26,197.28,3048.32,0.0,0.004,0.016,1.042,69683.36,28.97,0,0,0.0,0.0,0.0,0.0,0.97,-22.0
2025-11-09T16:45:52.833883,280,-1.34,3.19,197.29,3048.32,0.0,0.003,0.016,1.043,69683.36,28.95,0,0,0.0,0.0,0.0,0.0,0.97,-22.0
2025-11-09T16:45:52.932437,281,-1.31,3.12,197.32,3048.32,0.0,0.004,0.018,1.042,69683.36,28.96,0,0,0.0,0.0,0.0,0.0,0.97,-23.0
2025-11-09T16:45:53.034559,282,-1.27,3.06,197.32,3048.32,0.0,0.004,0.017,1.043,69683.36,28.97,0,0,0.0,0.0,0.0,0.0,0.97,-23.0
2025-11-09T16:45:53.133246,283,-1.25,3.0,197.34,3048.32,0.0,0.005,0.016,1.039,69683.36,28.97,0,0,0.0,0.0,0.0,0.0,0.97,-22.0
2025-11-09T16:45:53.235095,284,-1.22,2.94,197.35,3048.32,0.0,0.004,0.015,1.041,69683.36,28.99,0,0,0.0,0.0,0.0,0.0,0.97,-22.0
2025-11-09T16:45:53.333506,285,-1.19,2.88,197.38,3048.32,0.0,0.004,0.017,1.042,69683.36,28.97,0,0,0.0,0.0,0.0,0.0,0.97,-23.0
2025-11-09T16:45:53.432500,286,-1.16,2.82,197.39,3048.32,0.0,0.005,0.016,1.041,69683.36,28.94,0,0,0.0,0.0,0.0,0.0,0.97,-22.0
2025-11-09T16:45:53.534214,287,-1.14,2.76,197.4,3048.32,0.0,0.005,0.016,1.041,69683.36,28.99,0,0,0.0,0.0,0.0,0.0,0.97,-22.0
2025-11-09T16:45:53.632719,288,-1.11,2.71,197.41,3048.32,0.0,0.003,0.015,1.042,69683.36,29.0,0,0,0.0,0.0,0.0,0.0,0.97,-23.0
2025-11-09T16:45:53.734654,289,-1.09,2.65,197.42,3048.32,0.0,0.005,0.017,1.042,69683.36,28.96,0,0,0.0,0.0,0.0,0.0,0.97,-23.0
2025-11-09T16:45:53.833425,290,-1.06,2.6,197.43,3048.32,0.0,0.005,0.016,1.043,69683.36,28.97,0,0,0.0,0.0,0.0,0.0,0.97,-22.0
2025-11-09T16:45:53.931880,291,-1.04,2.55,197.42,3048.32,0.0,0.002,0.017,1.054,69683.36,28.96,0,0,0.0,0.0,0.0,0.0,0.97,-22.0
2025-11-09T16:45:54.033894,292,-1.02,2.51,197.43,3048.32,0.0,0.004,0.017,1.039,69683.36,28.96,0,0,0.0,0.0,0.0,0.0,0.97,-22.0
2025-11-09T16:45:54.132360,293,-0.99,2.46,197.44,3048.32,0.0,0.004,0.015,1.042,69683.36,28.96,0,0,0.0,0.0,0.0,0.0,0.97,-23.0
2025-11-09T16:45:54.234442,294,-0.97,2.41,197.45,3048.32,0.0,0.004,0.017,1.043,69683.36,28.97,0,0,0.0,0.0,0.0,0.0,0.97,-22.0
2025-11-09T16:45:54.333216,295,-0.95,2.37,197.47,3048.32,0.0,0.004,0.016,1.043,69683.36,28.97,0,0,0.0,0.0,0.0,0.0,0.97,-22.0
2025-11-09T16:45:54.431676,296,-0.93,2.33,197.46,3048.32,0.0,0.004,0.017,1.05,69683.36,28.96,0,0,0.0,0.0,0.0,0.0,0.97,-23.0
2025-11-09T16:45:54.533541,297,-0.92,2.28,197.46,3048.32,0.0,0.005,0.017,1.039,69683.36,28.98,0,0,0.0,0.0,0.0,0.0,0.97,-22.0
2025-11-09T16:45:54.632221,298,-0.9,2.24,197.46,3048.32,0.0,0.005,0.017,1.041,69683.36,28.96,0,0,0.0,0.0,0.0,0.0,0.97,-22.0
2025-11-09T16:45:54.734227,299,-0.88,2.2,197.45,3048.32,0.0,0.004,0.016,1.042,69683.36,28.96,0,0,0.0,0.0,0.0,0.0,0.97,-22.0
2025-11-09T16:45:54.832851,300,-0.86,2.17,197.45,3048.32,0.0,0.005,0.016,1.036,69683.36,28.95,0,0,0.0,0.0,0.0,0.0,0.97,-22.0
2025-11-09T16:45:54.934753,301,-0.84,2.13,197.45,3048.32,0.0,0.004,0.015,1.044,69683.36,28.96,0,0,0.0,0.0,0.0,0.0,0.97,-23.0
2025-11-09T16:45:55.033765,302,-0.83,2.09,197.46,3048.32,0.0,0.006,0.016,1.044,69683.36,28.95,0,0,0.0,0.0,0.0,0.0,0.97,-22.0
2025-11-09T16:45:55.132034,303,-0.81,2.06,197.45,3048.32,0.0,0.004,0.016,1.04,69683.36,28.99,0,0,0.0,0.0,0.0,0.0,0.97,-23.0
2025-11-09T16:45:55.233962,304,-0.8,2.03,197.45,3048.32,0.0,0.006,0.016,1.038,69683.36,28.96,0,0,0.0,0.0,0.0,0.0,0.97,-22.0
2025-11-09T16:45:55.332709,305,-0.78,1.99,197.45,3048.32,0.0,0.005,0.017,1.041,69683.36,28.94,0,0,0.0,0.0,0.0,0.0,0.97,-22.0
2025-11-09T16:45:55.434673,306,-0.77,1.96,197.45,3048.32,0.0,0.004,0.018,1.041,69683.36,28.96,0,0,0.0,0.0,0.0,0.0,0.97,-22.0
2025-11-09T16:45:55.533132,307,-0.75,1.93,197.44,3048.32,0.0,0.006,0.015,1.041,69683.36,28.97,0,0,0.0,0.0,0.0,0.0,0.97,-23.0
2025-11-09T16:45:55.631658,308,-0.74,1.9,197.46,3048.32,0.0,0.004,0.018,1.043,69683.36,28.97,0,0,0.0,0.0,0.0,0.0,0.97,-22.0
2025-11-09T16:45:55.733738,309,-0.73,1.87,197.49,3048.32,0.0,0.004,0.016,1.043,69683.36,28.96,0,0,0.0,0.0,0.0,0.0,0.97,-22.0
2025-11-09T16:45:55.832413,310,-0.71,1.85,197.5,3048.32,0.0,0.005,0.017,1.041,69683.36,28.96,0,0,0.0,0.0,0.0,0.0,0.97,-22.0
2025-11-09T16:45:55.934369,311,-0.7,1.82,197.49,3048.32,0.0,0.004,0.017,1.043,69683.36,28.98,0,0,0.0,0.0,0.0,0.0,0.97,-23.0
2025-11-09T16:45:56.032934,312,-0.69,1.79,197.49,3048.32,0.0,0.005,0.015,1.046,69683.36,28.94,0,0,0.0,0.0,0.0,0.0,0.97,-23.0
2025-11-09T16:45:56.136232,313,-0.68,1.77,197.51,3048.32,0.0,0.004,0.017,1.041,69683.36,28.95,0,0,0.0,0.0,0.0,0.0,0.97,-23.0
2025-11-09T16:45:56.233434,314,-0.67,1.74,197.51,3048.32,0.0,0.005,0.019,1.042,69683.36,28.95,0,0,0.0,0.0,0.0,0.0,0.97,-22.0
2025-11-09T16:45:56.332256,315,-0.66,1.72,197.52,3048.32,0.0,0.004,0.017,1.042,69683.36,28.96,0,0,0.0,0.0,0.0,0.0,0.97,-24.0
2025-11-09T16:45:56.434093,316,-0.65,1.69,197.53,3048.32,0.0,0.004,0.018,1.041,69683.36,28.96,0,0,0.0,0.0,0.0,0.0,0.97,-23.0
2025-11-09T16:45:56.532816,317,-0.64,1.67,197.53,3048.32,0.0,0.005,0.016,1.041,69683.36,28.94,0,0,0.0,0.0,0.0,0.0,0.97,-23.0
2025-11-09T16:45:56.634695,318,-0.63,1.65,197.51,3048.32,0.0,0.005,0.016,1.044,69683.36,29.02,0,0,0.0,0.0,0.0,0.0,0.97,-22.0
2025-11-09T16:45:56.733344,319,-0.62,1.63,197.52,3048.32,0.0,0.002,0.017,1.042,69683.36,28.97,0,0,0.0,0.0,0.0,0.0,0.97,-22.0
2025-11-09T16:45:56.831959,320,-0.61,1.61,197.53,3048.32,0.0,0.004,0.017,1.043,69683.36,28.95,0,0,0.0,0.0,0.0,0.0,0.97,-22.0
2025-11-09T16:45:56.933784,321,-0.6,1.58,197.53,3048.32,0.0,0.006,0.016,1.044,69683.36,28.96,0,0,0.0,0.0,0.0,0.0,0.97,-22.0
2025-11-09T16:45:57.032294,322,-0.59,1.56,197.54,3048.32,0.0,0.007,0.012,1.036,69683.36,28.97,0,0,0.0,0.0,0.0,0.0,0.97,-22.0
2025-11-09T16:45:57.134174,323,-0.58,1.54,197.55,3048.32,0.0,0.006,0.017,1.047,69683.36,28.98,0,0,0.0,0.0,0.0,0.0,0.97,-22.0
2025-11-09T16:45:57.232601,324,-0.58,1.52,197.58,3048.32,0.0,0.006,0.016,1.04,69683.36,28.96,0,0,0.0,0.0,0.0,0.0,0.97,-23.0
2025-11-09T16:45:57.334852,325,-0.57,1.51,197.59,3048.32,0.0,0.004,0.017,1.041,69683.36,28.99,0,0,0.0,0.0,0.0,0.0,0.97,-24.0
2025-11-09T16:45:57.433375,326,-0.56,1.49,197.58,3048.32,0.0,0.005,0.015,1.043,69683.36,28.95,0,0,0.0,0.0,0.0,0.0,0.97,-23.0
2025-11-09T16:45:57.532223,327,-0.55,1.47,197.59,3048.32,0.0,0.006,0.015,1.042,69683.36,28.94,0,0,0.0,0.0,0.0,0.0,0.97,-22.0
2025-11-09T16:45:57.634061,328,-0.55,1.45,197.59,3048.32,0.0,0.005,0.016,1.042,69683.36,28.97,0,0,0.0,0.0,0.0,0.0,0.97,-22.0
2025-11-09T16:45:57.732666,329,-0.54,1.44,197.57,3048.32,0.0,0.004,0.018,1.043,69683.36,28.97,0,0,0.0,0.0,0.0,0.0,0.97,-22.0
2025-11-09T16:45:57.834684,330,-0.53,1.42,197.56,3048.32,0.0,0.002,0.018,1.042,69683.36,29.0,0,0,0.0,0.0,0.0,0.0,0.97,-23.0
2025-11-09T16:45:57.933364,331,-0.52,1.41,197.53,3048.32,0.0,0.007,0.017,1.042,69683.36,29.0,0,0,0.0,0.0,0.0,0.0,0.97,-22.0
2025-11-09T16:45:58.031675,332,-0.52,1.39,197.52,3048.32,0.0,0.005,0.016,1.043,69683.36,29.0,0,0,0.0,0.0,0.0,0.0,0.97,-22.0
2025-11-09T16:45:58.133917,333,-0.51,1.38,197.53,3048.32,0.0,0.005,0.016,1.042,69683.36,28.93,0,0,0.0,0.0,0.0,0.0,0.97,-23.0
2025-11-09T16:45:58.232226,334,-0.5,1.36,197.54,3048.32,0.0,0.004,0.016,1.041,69683.36,28.89,0,0,0.0,0.0,0.0,0.0,0.97,-23.0
2025-11-09T16:45:58.334399,335,-0.5,1.35,197.54,3048.32,0.0,0.004,0.02,1.045,69683.36,28.96,0,0,0.0,0.0,0.0,0.0,0.97,-22.0
2025-11-09T16:45:58.432988,336,-0.49,1.34,197.54,3048.32,0.0,0.007,0.016,1.042,69683.36,29.0,0,0,0.0,0.0,0.0,0.0,0.97,-23.0
2025-11-09T16:45:58.535041,337,-0.49,1.32,197.53,3048.32,0.0,0.005,0.015,1.043,69683.36,28.98,0,0,0.0,0.0,0.0,0.0,0.97,-23.0
2025-11-09T16:45:58.633622,338,-0.48,1.31,197.54,3048.32,0.0,0.006,0.014,1.043,69683.36,29.03,0,0,0.0,0.0,0.0,0.0,0.97,-23.0
2025-11-09T16:45:58.732283,339,-0.48,1.3,197.55,3048.32,0.0,0.004,0.014,1.041,69683.36,28.99,0,0,0.0,0.0,0.0,0.0,0.97,-23.0
2025-11-09T16:45:58.834255,340,-0.47,1.29,197.56,3048.32,0.0,0.006,0.016,1.042,69683.36,28.98,0,0,0.0,0.0,0.0,0.0,0.97,-23.0
2025-11-09T16:45:58.932782,341,-0.47,1.27,197.57,3048.32,0.0,0.006,0.017,1.041,69683.36,29.0,0,0,0.0,0.0,0.0,0.0,0.97,-23.0
2025-11-09T16:45:59.034718,342,-0.47,1.26,197.58,3048.32,0.0,0.005,0.017,1.042,69683.36,28.96,0,0,0.0,0.0,0.0,0.0,0.97,-24.0
2025-11-09T16:45:59.133158,343,-0.46,1.25,197.56,3048.32,0.0,0.006,0.016,1.044,69683.36,28.96,0,0,0.0,0.0,0.0,0.0,0.97,-23.0
2025-11-09T16:45:59.235286,344,-0.46,1.24,197.57,3048.32,0.0,0.005,0.015,1.041,69683.36,28.96,0,0,0.0,0.0,0.0,0.0,0.97,-23.0
2025-11-09T16:45:59.333878,345,-0.45,1.23,197.57,3048.32,0.0,0.005,0.017,1.044,69683.36,28.96,0,0,0.0,0.0,0.0,0.0,0.97,-23.0
2025-11-09T16:45:59.432678,346,-0.45,1.22,197.55,3048.32,0.0,0.005,0.017,1.042,69683.36,29.02,0,0,0.0,0.0,0.0,0.0,0.97,-22.0
2025-11-09T16:45:59.534537,347,-0.44,1.21,197.54,3048.32,0.0,0.004,0.016,1.042,69683.36,28.96,0,0,0.0,0.0,0.0,0.0,0.97,-22.0
2025-11-09T16:45:59.633057,348,-0.44,1.2,197.56,3048.32,0.0,0.005,0.016,1.041,69683.36,28.96,0,0,0.0,0.0,0.0,0.0,0.97,-23.0
2025-11-09T16:45:59.735003,349,-0.44,1.19,197.55,3048.32,0.0,0.007,0.017,1.042,69683.36,28.96,0,0,0.0,0.0,0.0,0.0,0.97,-23.0
2025-11-09T16:45:59.833662,350,-0.43,1.18,197.54,3048.32,0.0,0.005,0.015,1.043,69683.36,29.0,0,0,0.0,0.0,0.0,0.0,0.97,-22.0
2025-11-09T16:45:59.932283,351,-0.43,1.17,197.55,3048.32,0.0,0.005,0.016,1.042,69683.36,28.96,0,0,0.0,0.0,0.0,0.0,0.97,-22.0
2025-11-09T16:46:00.034245,352,-0.43,1.16,197.53,3048.32,0.0,0.005,0.017,1.043,69683.36,29.02,0,0,0.0,0.0,0.0,0.0,0.97,-22.0
2025-11-09T16:46:00.132847,353,-0.42,1.15,197.52,3048.32,0.0,0.005,0.017,1.043,69683.36,28.95,0,0,0.0,0.0,0.0,0.0,0.97,-22.0
2025-11-09T16:46:00.234676,354,-0.42,1.14,197.53,3048.32,0.0,0.006,0.018,1.042,69683.36,28.98,0,0,0.0,0.0,0.0,0.0,0.97,-22.0
2025-11-09T16:46:00.333397,355,-0.42,1.14,197.54,3048.32,0.0,0.005,0.015,1.042,69683.36,28.98,0,0,0.0,0.0,0.0,0.0,0.97,-23.0
2025-11-09T16:46:00.435331,356,-0.42,1.13,197.55,3048.32,0.0,0.005,0.015,1.041,69683.36,28.99,0,0,0.0,0.0,0.0,0.0,0.97,-23.0
2025-11-09T16:46:00.533986,357,-0.41,1.12,197.55,3048.32,0.0,0.006,0.019,1.044,69683.36,28.98,0,0,0.0,0.0,0.0,0.0,0.97,-22.0
2025-11-09T16:46:00.632730,358,-0.41,1.09,197.56,3048.32,0.0,0.014,-0.022,1.04,69683.36,28.96,0,0,0.0,0.0,0.0,0.0,0.97,-23.0
2025-11-09T16:46:00.734550,359,-0.41,1.08,197.58,3048.32,0.0,0.006,0.016,1.042,69683.36,28.98,0,0,0.0,0.0,0.0,0.0,0.97,-23.0
2025-11-09T16:46:00.833147,360,-0.41,1.08,197.58,3048.32,0.0,0.006,0.017,1.042,69683.36,29.0,0,0,0.0,0.0,0.0,0.0,0.97,-23.0
2025-11-09T16:46:00.935094,361,-0.41,1.07,197.59,3048.32,0.0,0.005,0.017,1.041,69683.36,28.95,0,0,0.0,0.0,0.0,0.0,0.97,-23.0
2025-11-09T16:46:01.033590,362,-0.4,1.07,197.58,3048.32,0.0,0.004,0.016,1.041,69683.36,28.97,0,0,0.0,0.0,0.0,0.0,0.97,-22.0
2025-11-09T16:46:01.132332,363,-0.4,1.06,197.58,3048.32,0.0,0.004,0.017,1.041,69683.36,28.96,0,0,0.0,0.0,0.0,0.0,0.97,-23.0
2025-11-09T16:46:01.234364,364,-0.4,1.06,197.57,3048.32,0.0,0.005,0.016,1.044,69683.36,28.97,0,0,0.0,0.0,0.0,0.0,0.97,-23.0
2025-11-09T16:46:01.332961,365,-0.39,1.05,197.58,3048.32,0.0,0.005,0.017,1.042,69683.36,28.97,0,0,0.0,0.0,0.0,0.0,0.97,-23.0
2025-11-09T16:46:01.434892,366,-0.39,1.05,197.59,3048.32,0.0,0.005,0.015,1.037,69683.36,29.01,0,0,0.0,0.0,0.0,0.0,0.97,-23.0
2025-11-09T16:46:01.533627,367,-0.39,1.04,197.59,3048.32,0.0,0.005,0.016,1.04,69683.36,28.99,0,0,0.0,0.0,0.0,0.0,0.97,-23.0
2025-11-09T16:46:01.635451,368,-0.39,1.04,197.6,3048.32,0.0,0.007,0.015,1.041,69683.36,28.95,0,0,0.0,0.0,0.0,0.0,0.97,-23.0
2025-11-09T16:46:01.734136,369,-0.39,1.03,197.61,3048.32,0.0,0.005,0.015,1.041,69683.36,28.95,0,0,0.0,0.0,0.0,0.0,0.97,-23.0
2025-11-09T16:46:01.832915,370,-0.39,1.03,197.63,3048.32,0.0,0.006,0.015,1.042,69683.36,28.98,0,0,0.0,0.0,0.0,0.0,0.97,-23.0
2025-11-09T16:46:01.934609,371,-0.38,1.02,197.65,3048.32,0.0,0.005,0.015,1.041,69683.36,29.0,0,0,0.0,0.0,0.0,0.0,0.97,-23.0
2025-11-09T16:46:02.033213,372,-0.38,1.02,197.65,3048.32,0.0,0.006,0.016,1.04,69683.36,28.97,0,0,0.0,0.0,0.0,0.0,0.97,-23.0
2025-11-09T16:46:02.135211,373,-0.38,1.01,197.66,3048.32,0.0,0.005,0.015,1.042,69683.36,28.94,0,0,0.0,0.0,0.0,0.0,0.97,-23.0
2025-11-09T16:46:02.233614,374,-0.38,1.01,197.67,3048.32,0.0,0.005,0.014,1.043,69683.36,28.99,0,0,0.0,0.0,0.0,0.0,0.97,-23.0
2025-11-09T16:46:02.332321,375,-0.38,1.0,197.67,3048.32,0.0,0.004,0.015,1.041,69683.36,28.96,0,0,0.0,0.0,0.0,0.0,0.97,-23.0
2025-11-09T16:46:02.434434,376,-0.38,1.0,197.69,3048.32,0.0,0.005,0.015,1.043,69683.36,29.0,0,0,0.0,0.0,0.0,0.0,0.97,-23.0
2025-11-09T16:46:02.533055,377,-0.38,1.0,197.69,3048.32,0.0,0.005,0.017,1.04,69683.36,28.98,0,0,0.0,0.0,0.0,0.0,0.97,-23.0
2025-11-09T16:46:02.635005,378,-0.38,0.99,197.69,3048.32,0.0,0.005,0.014,1.041,69683.36,28.91,0,0,0.0,0.0,0.0,0.0,0.97,-23.0
2025-11-09T16:46:02.733613,379,-0.38,0.99,197.7,3048.32,0.0,0.005,0.014,1.041,69683.36,28.94,0,0,0.0,0.0,0.0,0.0,0.97,-24.0
2025-11-09T16:46:02.835483,380,-0.37,0.98,197.7,3048.32,0.0,0.004,0.015,1.042,69683.36,28.98,0,0,0.0,0.0,0.0,0.0,0.97,-23.0
2025-11-09T16:46:02.934145,381,-0.37,0.98,197.72,3048.32,0.0,0.006,0.017,1.042,69683.36,29.0,0,0,0.0,0.0,0.0,0.0,0.97,-23.0
2025-11-09T16:46:03.032857,382,-0.37,0.98,197.73,3048.32,0.0,0.006,0.013,1.041,69683.36,28.95,0,0,0.0,0.0,0.0,0.0,0.97,-22.0
2025-11-09T16:46:03.134772,383,-0.37,0.97,197.72,3048.32,0.0,0.006,0.016,1.041,69683.36,28.96,0,0,0.0,0.0,0.0,0.0,0.97,-23.0
2025-11-09T16:46:03.233416,384,-0.37,0.97,197.72,3048.32,0.0,0.006,0.017,1.043,69683.36,28.93,0,0,0.0,0.0,0.0,0.0,0.97,-23.0
2025-11-09T16:46:03.335314,385,-0.37,0.96,197.74,3048.32,0.0,0.006,0.014,1.041,69683.36,28.98,0,0,0.0,0.0,0.0,0.0,0.97,-23.0
2025-11-09T16:46:03.433986,386,-0.37,0.96,197.76,3048.32,0.0,0.013,0.012,1.039,69683.36,28.98,0,0,0.0,0.0,0.0,0.0,0.97,-23.0
2025-11-09T16:46:03.535831,387,-0.37,0.96,197.77,3048.32,0.0,0.003,0.015,1.04,69683.36,28.95,0,0,0.0,0.0,0.0,0.0,0.97,-22.0
2025-11-09T16:46:03.634464,388,-0.37,0.95,197.77,3048.32,0.0,0.006,0.016,1.042,69683.36,28.98,0,0,0.0,0.0,0.0,0.0,0.97,-23.0
2025-11-09T16:46:03.733093,389,-0.36,0.95,197.8,3048.32,0.0,0.007,0.015,1.042,69683.36,28.96,0,0,0.0,0.0,0.0,0.0,0.97,-22.0
2025-11-09T16:46:03.835017,390,-0.36,0.95,197.8,3048.32,0.0,0.005,0.013,1.043,69683.36,28.96,0,0,0.0,0.0,0.0,0.0,0.97,-22.0
2025-11-09T16:46:03.933619,391,-0.36,0.94,197.81,3048.32,0.0,0.006,0.014,1.043,69683.36,28.95,0,0,0.0,0.0,0.0,0.0,0.97,-22.0
2025-11-09T16:46:04.035583,392,-0.36,0.94,197.83,3048.32,0.0,0.005,0.014,1.043,69683.36,28.98,0,0,0.0,0.0,0.0,0.0,0.97,-23.0
2025-11-09T16:46:04.134236,393,-0.36,0.94,197.84,3048.32,0.0,0.003,0.015,1.041,69683.36,28.99,0,0,0.0,0.0,0.0,0.0,0.97,-22.0
2025-11-09T16:46:04.232839,394,-0.36,0.93,197.85,3048.32,0.0,0.006,0.016,1.043,69683.36,29.0,0,0,0.0,0.0,0.0,0.0,0.97,-23.0
2025-11-09T16:46:04.334706,395,-0.36,0.93,197.86,3048.32,0.0,0.004,0.015,1.043,69683.36,28.97,0,0,0.0,0.0,0.0,0.0,0.97,-23.0
2025-11-09T16:46:04.433419,396,-0.36,0.93,197.87,3048.32,0.0,0.007,0.017,1.041,69683.36,28.98,0,0,0.0,0.0,0.0,0.0,0.97,-22.0
2025-11-09T16:46:04.535379,397,-0.36,0.93,197.88,3048.32,0.0,0.006,0.016,1.042,69683.36,28.96,0,0,0.0,0.0,0.0,0.0,0.97,-23.0
2025-11-09T16:46:04.633983,398,-0.36,0.92,197.88,3048.32,0.0,0.005,0.015,1.041,69683.36,28.96,0,0,0.0,0.0,0.0,0.0,0.97,-22.0
2025-11-09T16:46:04.735903,399,-0.35,0.92,197.87,3048.32,0.0,0.005,0.015,1.041,69683.36,28.99,0,0,0.0,0.0,0.0,0.0,0.97,-23.0
2025-11-09T16:46:04.834605,400,-0.35,0.92,197.87,3048.32,0.0,0.005,0.014,1.044,69683.36,28.98,0,0,0.0,0.0,0.0,0.0,0.97,-22.0
2025-11-09T16:46:04.933203,401,-0.35,0.92,197.87,3048.32,0.0,0.004,0.015,1.043,69683.36,28.97,0,0,0.0,0.0,0.0,0.0,0.97,-22.0
2025-11-09T16:46:05.035166,402,-0.35,0.91,197.87,3048.32,0.0,0.006,0.015,1.041,69683.36,28.97,0,0,0.0,0.0,0.0,0.0,0.97,-22.0
2025-11-09T16:46:05.133675,403,-0.35,0.91,197.88,3048.32,0.0,0.004,0.015,1.041,69683.36,28.96,0,0,0.0,0.0,0.0,0.0,0.97,-23.0
2025-11-09T16:46:05.235623,404,-0.35,0.91,197.89,3048.32,0.0,0.005,0.016,1.042,69683.36,28.97,0,0,0.0,0.0,0.0,0.0,0.97,-22.0
2025-11-09T16:46:05.334326,405,-0.35,0.91,197.88,3048.32,0.0,0.003,0.016,1.043,69683.36,28.95,0,0,0.0,0.0,0.0,0.0,0.97,-22.0
2025-11-09T16:46:05.432960,406,-0.35,0.91,197.88,3048.32,0.0,0.006,0.016,1.043,69683.36,28.99,0,0,0.0,0.0,0.0,0.0,0.97,-23.0
2025-11-09T16:46:05.534867,407,-0.35,0.9,197.86,3048.32,0.0,0.007,0.013,1.044,69683.36,28.97,0,0,0.0,0.0,0.0,0.0,0.97,-22.0
2025-11-09T16:46:05.633623,408,-0.35,0.9,197.86,3048.32,0.0,0.005,0.017,1.041,69683.36,28.96,0,0,0.0,0.0,0.0,0.0,0.97,-23.0
2025-11-09T16:46:05.735480,409,-0.35,0.9,197.87,3048.32,0.0,0.006,0.017,1.042,69683.36,29.01,0,0,0.0,0.0,0.0,0.0,0.97,-22.0
2025-11-09T16:46:05.834151,410,-0.34,0.9,197.86,3048.32,0.0,0.007,0.018,1.041,69683.36,28.98,0,0,0.0,0.0,0.0,0.0,0.97,-23.0
2025-11-09T16:46:05.935924,411,-0.34,0.9,197.89,3048.32,0.0,0.006,0.016,1.042,69683.36,28.96,0,0,0.0,0.0,0.0,0.0,0.97,-23.0
2025-11-09T16:46:06.034713,412,-0.34,0.9,197.87,3048.32,0.0,0.006,0.015,1.042,69683.36,28.96,0,0,0.0,0.0,0.0,0.0,0.97,-22.0
2025-11-09T16:46:06.133240,413,-0.34,0.89,197.85,3048.32,0.0,0.006,0.015,1.04,69683.36,28.98,0,0,0.0,0.0,0.0,0.0,0.97,-24.0
2025-11-09T16:46:06.235180,414,-0.34,0.89,197.85,3048.32,0.0,0.005,0.015,1.043,69683.36,28.95,0,0,0.0,0.0,0.0,0.0,0.97,-24.0
2025-11-09T16:46:06.333585,415,-0.34,0.89,197.84,3048.32,0.0,0.006,0.016,1.042,69683.36,28.97,0,0,0.0,0.0,0.0,0.0,0.97,-23.0
2025-11-09T16:46:06.435722,416,-0.34,0.89,197.85,3048.32,0.0,0.005,0.015,1.042,69683.36,28.96,0,0,0.0,0.0,0.0,0.0,0.97,-24.0
2025-11-09T16:46:06.534432,417,-0.34,0.89,197.85,3048.32,0.0,0.007,0.015,1.041,69683.36,28.97,0,0,0.0,0.0,0.0,0.0,0.97,-23.0
2025-11-09T16:46:06.632984,418,-0.34,0.89,197.85,3048.32,0.0,0.005,0.017,1.043,69683.36,28.98,0,0,0.0,0.0,0.0,0.0,0.97,-23.0
2025-11-09T16:46:06.734946,419,-0.34,0.89,197.86,3048.32,0.0,0.005,0.014,1.043,69683.36,28.97,0,0,0.0,0.0,0.0,0.0,0.97,-22.0
2025-11-09T16:46:06.833683,420,-0.34,0.88,197.85,3048.32,0.0,0.004,0.015,1.041,69683.36,28.97,0,0,0.0,0.0,0.0,0.0,0.97,-22.0
2025-11-09T16:46:06.935523,421,-0.34,0.88,197.85,3048.32,0.0,0.005,0.015,1.042,69683.36,28.99,0,0,0.0,0.0,0.0,0.0,0.97,-22.0
2025-11-09T16:46:07.034214,422,-0.34,0.88,197.85,3048.32,0.0,0.004,0.015,1.043,69683.36,28.96,0,0,0.0,0.0,0.0,0.0,0.97,-23.0
2025-11-09T16:46:07.136086,423,-0.34,0.88,197.85,3048.32,0.0,0.006,0.016,1.043,69683.36,29.01,0,0,0.0,0.0,0.0,0.0,0.97,-23.0
2025-11-09T16:46:07.234749,424,-0.34,0.88,197.85,3048.32,0.0,0.005,0.014,1.041,69683.36,28.94,0,0,0.0,0.0,0.0,0.0,0.97,-22.0
2025-11-09T16:46:07.333356,425,-0.34,0.88,197.85,3048.32,0.0,0.005,0.016,1.042,69683.36,28.96,0,0,0.0,0.0,0.0,0.0,0.97,-23.0
2025-11-09T16:46:07.435413,426,-0.34,0.88,197.85,3048.32,0.0,0.005,0.015,1.042,69683.36,28.97,0,0,0.0,0.0,0.0,0.0,0.97,-22.0
2025-11-09T16:46:07.533957,427,-0.34,0.88,197.85,3048.32,0.0,0.006,0.015,1.042,69683.36,28.98,0,0,0.0,0.0,0.0,0.0,0.97,-22.0
2025-11-09T16:46:07.635835,428,-0.34,0.88,197.85,3048.32,0.0,0.007,0.015,1.041,69683.36,29.01,0,0,0.0,0.0,0.0,0.0,0.97,-23.0
2025-11-09T16:46:07.734528,429,-0.34,0.87,197.85,3048.32,0.0,0.006,0.016,1.041,69683.36,28.99,0,0,0.0,0.0,0.0,0.0,0.97,-21.0
2025-11-09T16:46:07.833151,430,-0.34,0.87,197.85,3048.32,0.0,0.005,0.017,1.042,69683.36,28.9,0,0,0.0,0.0,0.0,0.0,0.97,-22.0
2025-11-09T16:46:07.935090,431,-0.34,0.87,197.86,3048.32,0.0,0.005,0.015,1.042,69683.36,28.99,0,0,0.0,0.0,0.0,0.0,0.97,-21.0
2025-11-09T16:46:08.033784,432,-0.34,0.87,197.86,3048.32,0.0,0.007,0.015,1.041,69683.36,28.96,0,0,0.0,0.0,0.0,0.0,0.97,-22.0
2025-11-09T16:46:08.135604,433,-0.34,0.87,197.87,3048.32,0.0,0.006,0.015,1.044,69683.36,28.95,0,0,0.0,0.0,0.0,0.0,0.97,-22.0
2025-11-09T16:46:08.234292,434,-0.34,0.87,197.86,3048.32,0.0,0.006,0.016,1.042,69683.36,28.95,0,0,0.0,0.0,0.0,0.0,0.97,-22.0
2025-11-09T16:46:08.336065,435,-0.34,0.87,197.87,3048.32,0.0,0.005,0.015,1.043,69683.36,28.96,0,0,0.0,0.0,0.0,0.0,0.97,-22.0
2025-11-09T16:46:08.434750,436,-0.34,0.87,197.87,3048.32,0.0,0.007,0.016,1.042,69683.36,28.96,0,0,0.0,0.0,0.0,0.0,0.97,-22.0
2025-11-09T16:46:08.533415,437,-0.34,0.87,197.85,3048.32,0.0,0.005,0.015,1.043,69683.36,28.99,0,0,0.0,0.0,0.0,0.0,0.97,-22.0
2025-11-09T16:46:08.635477,438,-0.34,0.87,197.84,3048.32,0.0,0.004,0.017,1.042,69683.36,28.93,0,0,0.0,0.0,0.0,0.0,0.97,-22.0
2025-11-09T16:46:08.734008,439,-0.34,0.87,197.82,3048.32,0.0,0.006,0.015,1.04,69683.36,28.95,0,0,0.0,0.0,0.0,0.0,0.97,-22.0
2025-11-09T16:46:08.835944,440,-0.34,0.87,197.81,3048.32,0.0,0.004,0.015,1.042,69683.36,28.95,0,0,0.0,0.0,0.0,0.0,0.97,-22.0
2025-11-09T16:46:08.934537,441,-0.34,0.87,197.8,3048.32,0.0,0.005,0.016,1.041,69683.36,28.96,0,0,0.0,0.0,0.0,0.0,0.97,-22.0
2025-11-09T16:46:09.036552,442,-0.34,0.87,197.81,3048.32,0.0,0.004,0.013,1.042,69683.36,28.97,0,0,0.0,0.0,0.0,0.0,0.97,-22.0
2025-11-09T16:46:09.135242,443,-0.34,0.87,197.81,3048.32,0.0,0.005,0.016,1.043,69683.36,28.97,0,0,0.0,0.0,0.0,0.0,0.97,-22.0
2025-11-09T16:46:09.233712,444,-0.34,0.87,197.8,3048.32,0.0,0.006,0.016,1.042,69683.36,28.97,0,0,0.0,0.0,0.0,0.0,0.97,-23.0
2025-11-09T16:46:09.335759,445,-0.34,0.86,197.79,3048.32,0.0,0.005,0.016,1.042,69683.36,28.94,0,0,0.0,0.0,0.0,0.0,0.97,-22.0
2025-11-09T16:46:09.434344,446,-0.34,0.86,197.76,3048.32,0.0,0.004,0.017,1.042,69683.36,28.96,0,0,0.0,0.0,0.0,0.0,0.97,-22.0
2025-11-09T16:46:09.536296,447,-0.33,0.86,197.75,3048.32,0.0,0.005,0.015,1.042,69683.36,29.0,0,0,0.0,0.0,0.0,0.0,0.97,-23.0
2025-11-09T16:46:09.634960,448,-0.33,0.86,197.74,3048.32,0.0,0.006,0.016,1.043,69683.36,28.97,0,0,0.0,0.0,0.0,0.0,0.97,-21.0
2025-11-09T16:46:09.733501,449,-0.33,0.86,197.73,3048.32,0.0,0.004,0.015,1.041,69683.36,28.96,0,0,0.0,0.0,0.0,0.0,0.97,-23.0
2025-11-09T16:46:09.835498,450,-0.33,0.86,197.73,3048.32,0.0,0.006,0.015,1.041,69683.36,28.93,0,0,0.0,0.0,0.0,0.0,0.97,-21.0
2025-11-09T16:46:09.934160,451,-0.33,0.86,197.74,3048.32,0.0,0.005,0.016,1.041,69683.36,28.96,0,0,0.0,0.0,0.0,0.0,0.97,-22.0
2025-11-09T16:46:10.036040,452,-0.33,0.86,197.72,3048.32,0.0,0.005,0.015,1.04,69683.36,28.96,0,0,0.0,0.0,0.0,0.0,0.97,-21.0
2025-11-09T16:46:10.134627,453,-0.33,0.86,197.71,3048.32,0.0,0.007,0.015,1.042,69683.36,28.95,0,0,0.0,0.0,0.0,0.0,0.97,-22.0
2025-11-09T16:46:10.233309,454,-0.33,0.86,197.71,3048.32,0.0,0.005,0.014,1.042,69683.36,28.96,0,0,0.0,0.0,0.0,0.0,0.97,-22.0
2025-11-09T16:46:10.335295,455,-0.33,0.85,197.69,3048.32,0.0,0.004,0.013,1.04,69683.36,28.95,0,0,0.0,0.0,0.0,0.0,0.97,-21.0
2025-11-09T16:46:10.433653,456,-0.33,0.85,197.67,3048.32,0.0,0.003,0.014,1.043,69683.36,28.96,0,0,0.0,0.0,0.0,0.0,0.97,-22.0
2025-11-09T16:46:10.535679,457,-0.33,0.85,197.67,3048.32,0.0,0.006,0.014,1.042,69683.36,28.94,0,0,0.0,0.0,0.0,0.0,0.97,-22.0
2025-11-09T16:46:10.634349,458,-0.33,0.85,197.66,3048.32,0.0,0.005,0.017,1.042,69683.36,29.01,0,0,0.0,0.0,0.0,0.0,0.97,-22.0
2025-11-09T16:46:10.736326,459,-0.33,0.85,197.66,3048.32,0.0,0.004,0.015,1.042,69683.36,28.96,0,0,0.0,0.0,0.0,0.0,0.97,-22.0
2025-11-09T16:46:10.834922,460,-0.33,0.85,197.66,3048.32,0.0,0.006,0.016,1.041,69683.36,28.96,0,0,0.0,0.0,0.0,0.0,0.97,-22.0
2025-11-09T16:46:10.933574,461,-0.33,0.85,197.65,3048.32,0.0,0.004,0.015,1.043,69683.36,28.97,0,0,0.0,0.0,0.0,0.0,0.97,-23.0
2025-11-09T16:46:11.035610,462,-0.33,0.85,197.65,3048.32,0.0,0.006,0.015,1.041,69683.36,28.98,0,0,0.0,0.0,0.0,0.0,0.97,-22.0
2025-11-09T16:46:11.134111,463,-0.33,0.85,197.66,3048.32,0.0,0.004,0.016,1.042,69683.36,28.99,0,0,0.0,0.0,0.0,0.0,0.97,-22.0
2025-11-09T16:46:11.236038,464,-0.33,0.85,197.65,3048.32,0.0,0.005,0.016,1.042,69683.36,29.0,0,0,0.0,0.0,0.0,0.0,0.97,-23.0
2025-11-09T16:46:11.334686,465,-0.33,0.85,197.66,3048.32,0.0,0.005,0.016,1.043,69683.36,28.98,0,0,0.0,0.0,0.0,0.0,0.97,-22.0
2025-11-09T16:46:11.433325,466,-0.33,0.85,197.65,3048.32,0.0,0.004,0.015,1.041,69683.36,28.96,0,0,0.0,0.0,0.0,0.0,0.97,-22.0
2025-11-09T16:46:11.535335,467,-0.33,0.85,197.67,3048.32,0.0,0.005,0.015,1.042,69683.36,28.97,0,0,0.0,0.0,0.0,0.0,0.97,-21.0
2025-11-09T16:46:11.633848,468,-0.33,0.85,197.69,3048.32,0.0,0.005,0.015,1.042,69683.36,28.96,0,0,0.0,0.0,0.0,0.0,0.97,-22.0
2025-11-09T16:46:11.735784,469,-0.33,0.85,197.71,3048.32,0.0,0.003,0.014,1.041,69683.36,28.97,0,0,0.0,0.0,0.0,0.0,0.97,-23.0
2025-11-09T16:46:11.834410,470,-0.33,0.85,197.7,3048.32,0.0,0.005,0.015,1.041,69683.36,28.98,0,0,0.0,0.0,0.0,0.0,0.97,-22.0
2025-11-09T16:46:11.936430,471,-0.33,0.85,197.7,3048.32,0.0,0.005,0.015,1.043,69683.36,28.97,0,0,0.0,0.0,0.0,0.0,0.97,-23.0
2025-11-09T16:46:12.034977,472,-0.33,0.85,197.7,3048.32,0.0,0.005,0.016,1.044,69683.36,28.98,0,0,0.0,0.0,0.0,0.0,0.97,-22.0
2025-11-09T16:46:12.133591,473,-0.33,0.85,197.69,3048.32,0.0,0.004,0.016,1.041,69683.36,28.96,0,0,0.0,0.0,0.0,0.0,0.97,-22.0
2025-11-09T16:46:12.235576,474,-0.33,0.85,197.69,3048.32,0.0,0.006,0.015,1.043,69683.36,28.91,0,0,0.0,0.0,0.0,0.0,0.97,-23.0
2025-11-09T16:46:12.334223,475,-0.33,0.85,197.7,3048.32,0.0,0.005,0.015,1.042,69683.36,28.94,0,0,0.0,0.0,0.0,0.0,0.97,-22.0
2025-11-09T16:46:12.436059,476,-0.33,0.85,197.7,3048.32,0.0,0.006,0.015,1.041,69683.36,28.95,0,0,0.0,0.0,0.0,0.0,0.97,-23.0
